date,place,seen,real,link,lon,lat,marker-color,marker-size,marker-symbol
2/10/1965,"Houston, Pennsylvania",flying object,debris in wind,https://ia601301.us.archive.org/zipview.php?zip=/8/items/bluebook/1960s.zip&file=1960s%2F1965-10-8690593-Houston-Pennsylvania.pdf,-80.2114472,40.2464593,#23ed0c,medium,rocket
01/01/1965,"Norfolk, Virginia",flying object,Astro(meteor shower),https://ia801301.us.archive.org/zipview.php?zip=/8/items/bluebook/1960s.zip&file=1960s%2F1965-01-8722344-Norfolk-Virginia.pdf,-76.2481624,36.8889933,#23ed0c,medium,rocket
02/01/1965,"Village Hall, Rockdale, Illinois",light,insufficient data,https://ia601301.us.archive.org/zipview.php?zip=/8/items/bluebook/1960s.zip&file=1960s%2F1965-01-8722353-%5BILLEGIBLE%5D.pdf,-88.1145036,41.506142,#ebe30f,medium,star
04/01/1965,"Morton, Illinois",flying object,Astro(Mars),https://ia801301.us.archive.org/zipview.php?zip=/8/items/bluebook/1960s.zip&file=1960s%2F1965-01-8722377-Morton-Illinois.pdf,-89.459323,40.6127349,#23ed0c,medium,rocket
04/01/1965,"Bethel, Vermont",,tracer bullets,https://ia801301.us.archive.org/zipview.php?zip=/8/items/bluebook/1960s.zip&file=1960s%2F1965-01-8722383-Bethel-Vermont.pdf,-72.634048,43.833536,#2c72ce,medium,cross
05/01/1965,"Wallops Island,Virginia",light,insufficient data,https://ia601301.us.archive.org/zipview.php?zip=/8/items/bluebook/1960s.zip&file=1960s%2F1965-01-8722450-WallopsIsland-Virginia.pdf,-75.4561665705755,37.88387115,#ebe30f,medium,star
05/01/1965,"Lynchburg, Virginia",light,insufficient data,https://ia801301.us.archive.org/zipview.php?zip=/8/items/bluebook/1960s.zip&file=1960s%2F1965-01-8722474-Lynchburg-Virginia.pdf,-79.1844923945909,37.40088,#ebe30f,medium,star
08/01/1965,"Georgetown, South Carolina",flying object,aircraft,https://ia601301.us.archive.org/zipview.php?zip=/8/items/bluebook/1960s.zip&file=1960s%2F1965-01-8722482-Georgetown-SouthCarolina.pdf,-79.2944965,33.376834,#23ed0c,medium,rocket
10/01/1965,"Silver Springs, Maryland",flying object,Astro(meteor),https://ia801301.us.archive.org/zipview.php?zip=/8/items/bluebook/1960s.zip&file=1960s%2F1965-01-8722502-SilverSprings-Maryland.pdf,-76.910115,38.821017,#23ed0c,medium,rocket
10/01/1965,"South Boston, Virginia",flying object,Astro(meteor),https://ia801301.us.archive.org/zipview.php?zip=/8/items/bluebook/1960s.zip&file=1960s%2F1965-01-8722514-SouthBoston-Virginia.pdf,-78.9013987,36.6987494,#23ed0c,medium,rocket
10/01/1965,"Pleasant Hill, Ohio",flying object,Astro(Jupiter),https://ia601301.us.archive.org/zipview.php?zip=/8/items/bluebook/1960s.zip&file=1960s%2F1965-01-8722521-PleasantHill-Ohio.pdf,-82.5079357,39.6714539,#23ed0c,medium,rocket
13/01/1965,New Zealand ,landing,contrails,https://ia801301.us.archive.org/zipview.php?zip=/8/items/bluebook/1960s.zip&file=1960s%2F1965-01-8722540-41S167E-BetweenNewZealand-Australia-.pdf,172.8344077,-41.5000831,#2c72ce,medium,cross
14/01/1965,"Mammoth, Arizona",light,unreliable report,https://ia801301.us.archive.org/zipview.php?zip=/8/items/bluebook/1960s.zip&file=1960s%2F1965-01-8722561-Mammoth-Arizona.pdf,-110.6406547,32.722568,#ebe30f,medium,star
14/01/1965,"Thaxton,Virginia",witness,aircraft,https://ia601301.us.archive.org/zipview.php?zip=/8/items/bluebook/1960s.zip&file=1960s%2F1965-01-8722576-Thaxton-Virginia.pdf,-79.6164233,37.3529172,#2c72ce,medium,cross
18/01/1965,"Buchanan,Virginia",flying object,unreliable report,https://ia801301.us.archive.org/zipview.php?zip=/8/items/bluebook/1960s.zip&file=1960s%2F1965-01-8722606-Buchanan-Virginia.pdf,-82.0320334,37.2600448,#23ed0c,medium,rocket
18/01/1965,"Santa Barbara, California",flying object,aircraft,https://ia601301.us.archive.org/zipview.php?zip=/8/items/bluebook/1960s.zip&file=1960s%2F1965-01-8722622-SantaBarbara-California.pdf,-119.7026673,34.4221319,#23ed0c,medium,rocket
19/01/1965,"Norwalk, California",light,insufficient data,https://ia801301.us.archive.org/zipview.php?zip=/8/items/bluebook/1960s.zip&file=1960s%2F1965-01-8722632-Norwalk-California.pdf,-118.0849169,33.9092802,#ebe30f,medium,star
20/01/1965,"Long Beach, Mississippi",flying object,aircraft,https://ia801301.us.archive.org/zipview.php?zip=/8/items/bluebook/1960s.zip&file=1960s%2F1965-01-8722646-LongBeach-Mississippi.pdf,-89.1528176,30.3504751,#23ed0c,medium,rocket
21/01/1965,"Richmond,Virginia",flying object,aircraft,https://ia601301.us.archive.org/zipview.php?zip=/8/items/bluebook/1960s.zip&file=1960s%2F1965-01-8722663-Richmond-Virginia.pdf,-77.43428,37.5385087,#23ed0c,medium,rocket
22/01/1965,"Baltimore,Maryland",flying object,aircraft,https://ia801301.us.archive.org/zipview.php?zip=/8/items/bluebook/1960s.zip&file=1960s%2F1965-01-8722696-Baltimore-Maryland.pdf,-76.610759,39.2908816,#23ed0c,medium,rocket
22/01/1965,"Elkins, West Virginia",light,Astro(sun dog),https://ia801301.us.archive.org/zipview.php?zip=/8/items/bluebook/1960s.zip&file=1960s%2F1965-01-8722674-Elkins-WestVirginia.pdf,-79.8466552,38.925927,#ebe30f,medium,star
23/01/1965,"Williamsburg,Virginia",witness,unidentified,https://ia601301.us.archive.org/zipview.php?zip=/8/items/bluebook/1960s.zip&file=1960s%2F1965-01-8722735-Williamsburg-Virginia.pdf,-76.7074042,37.2708788,#2c72ce,medium,cross
24/01/1965,"Alaska",witness,aircraft,https://ia801301.us.archive.org/zipview.php?zip=/8/items/bluebook/1960s.zip&file=1960s%2F1965-01-8722951-ALASKA.pdf,-149.680909,64.4459613,#2c72ce,medium,cross
25/01/1965,"Bedford,Virginia",flying object,unreliable report,https://ia601301.us.archive.org/zipview.php?zip=/8/items/bluebook/1960s.zip&file=1960s%2F1965-01-8722990-Bedford-Virginia.pdf,-79.5399003,37.3123905,#23ed0c,medium,rocket
25/01/1965,"Miami, Florida",flying object,aircraft,https://ia801301.us.archive.org/zipview.php?zip=/8/items/bluebook/1960s.zip&file=1960s%2F1965-01-8723022-Miami-Florida.pdf,-80.1936589,25.7742658,#23ed0c,medium,rocket
25/01/1965,"Bolar,Virginia",light,ground light,https://ia801301.us.archive.org/zipview.php?zip=/8/items/bluebook/1960s.zip&file=1960s%2F1965-01-8723028-Bolar-Virginia.pdf,-79.6764379,38.2173467,#ebe30f,medium,star
27/01/1965,"Dayton, Ohio",flying object,aircraft,https://ia601301.us.archive.org/zipview.php?zip=/8/items/bluebook/1960s.zip&file=1960s%2F1965-01-8723103-Dayton-Ohio.pdf,-84.1916069,39.7589478,#23ed0c,medium,rocket
27/01/1965,"Ewa Beach, Hawai",flying object,Astro(meteor),https://ia801301.us.archive.org/zipview.php?zip=/8/items/bluebook/1960s.zip&file=1960s%2F1965-01-8723137-EwaBeach-Hawaii.pdf,-158.008804,21.315603,#23ed0c,medium,rocket
27/01/1965,"Altavista,Virginia",flying object,aircraft,https://ia801301.us.archive.org/zipview.php?zip=/8/items/bluebook/1960s.zip&file=1960s%2F1965-01-8723170-Altavista-Virginia.pdf,-79.285579,37.1118094,#23ed0c,medium,rocket
28/01/1965,"Hampton,Virginia",flying object,balloon,https://ia601301.us.archive.org/zipview.php?zip=/8/items/bluebook/1960s.zip&file=1960s%2F1965-01-8723190-Hampton-Virginia.pdf,-76.2856365,37.0520315,#23ed0c,medium,rocket
30/01/1965,"Newport News,Virginia",flying object,lights on boat,https://ia801301.us.archive.org/zipview.php?zip=/8/items/bluebook/1960s.zip&file=1960s%2F1965-01-8723317-NewportNews-Virginia.pdf,-76.4321089,36.9786449,#23ed0c,medium,rocket
30/01/1965,"Seward, Pennsylvania",flying object,Astro(meteor),https://ia801301.us.archive.org/zipview.php?zip=/8/items/bluebook/1960s.zip&file=1960s%2F1965-01-8723329-Seward-Pennsylvania.pdf,-79.0200291,40.4142379,#23ed0c,medium,rocket
30/01/1965,"La Selva Beach, California",landing,unreliable report,https://ia801301.us.archive.org/zipview.php?zip=/8/items/bluebook/1960s.zip&file=1960s%2F1965-01-8723275-LaSelvaBeach-California.pdf,-121.8627775,36.936571,#2c72ce,medium,cross
30/01/1965,"Hinton, Oklahoma",light,birds,https://ia601301.us.archive.org/zipview.php?zip=/8/items/bluebook/1960s.zip&file=1960s%2F1965-01-8723341-Hinton-Oklahoma.pdf,-98.3556162,35.4714415,#ebe30f,medium,star
30/01/1965,"Mecca, California",,eccentric witness,https://ia801301.us.archive.org/zipview.php?zip=/8/items/bluebook/1960s.zip&file=1960s%2F1965-01-8723200-Mecca-California.pdf,-116.069708221225,33.5511969,#2c72ce,medium,cross
01/02/1965,"British Columbia, Canada",flying object,hoax,https://ia801301.us.archive.org/zipview.php?zip=/8/items/bluebook/1960s.zip&file=1960s%2F1960-02-6968709-BritishColumbia-Canada.pdf,-125.002441,55.001251,#23ed0c,medium,rocket
01/02/1965,"Jacksonville, Florida",light,satellite,https://ia601301.us.archive.org/zipview.php?zip=/8/items/bluebook/1960s.zip&file=1960s%2F1965-02-8723451-Jacksonville-Florida.pdf,-81.655651,30.3321838,#ebe30f,medium,star
02/02/1965,"Richmond,Virginia",flying object,balloon,https://ia801301.us.archive.org/zipview.php?zip=/8/items/bluebook/1960s.zip&file=1960s%2F1965-02-8723499-Richmond-Virginia.pdf,-77.43428,37.5385087,#23ed0c,medium,rocket
02/02/1965,"Wyandotte, Michigan",light,satellite,https://ia801301.us.archive.org/zipview.php?zip=/8/items/bluebook/1960s.zip&file=1960s%2F1965-02-8723512-Wyandotte-Michigan.pdf,-83.1510164,42.2006617,#ebe30f,medium,star
03/02/1965,"Philadelphia, Pennsylvania",witness,conflictis data,https://ia801301.us.archive.org/zipview.php?zip=/8/items/bluebook/1960s.zip&file=1960s%2F1965-02-8723578-Philadelphia-Pennsylvania.pdf,-75.1635755,39.9524152,#2c72ce,medium,cross
04/02/1965,"Morgantown, North Carolina",flying object,aircraft,https://ia601301.us.archive.org/zipview.php?zip=/8/items/bluebook/1960s.zip&file=1960s%2F1965-02-8723612-Morgantown-NorthCarolina.pdf,-79.4289103,36.1220805,#23ed0c,medium,rocket
05/02/1965,"Janesville, Wisconsin",flying object,Astro(meteor),https://ia801301.us.archive.org/zipview.php?zip=/8/items/bluebook/1960s.zip&file=1960s%2F1965-02-8723624-Janesville-Wisconsin.pdf,-89.0226793,42.6829765,#23ed0c,medium,rocket
05/02/1965,"Moneta, Virginia",flying object,aircraft,https://ia601301.us.archive.org/zipview.php?zip=/8/items/bluebook/1960s.zip&file=1960s%2F1965-02-8723660-Moneta-Virginia.pdf,-79.6172536,37.1812537,#23ed0c,medium,rocket
06/02/1965,"Liberty, Ohio",flying object,metal ball,https://ia801301.us.archive.org/zipview.php?zip=/8/items/bluebook/1960s.zip&file=1960s%2F1965-02-8723676-Liberty-Ohio.pdf,-84.324944,39.7200573,#23ed0c,medium,rocket
09/02/1965,"San Juan, Puerto Rico",flying object,aircraft,https://ia801301.us.archive.org/zipview.php?zip=/8/items/bluebook/1960s.zip&file=1960s%2F1965-02-8723806-SanJuan-PuertoRico.pdf,-66.4132818505648,18.22141715,#23ed0c,medium,rocket
13/02/1965,"Hibbing, Minnesota",flying object,Astro(meteor),https://ia801301.us.archive.org/zipview.php?zip=/8/items/bluebook/1960s.zip&file=1960s%2F1965-02-8723824-Hibbing-Minnesota.pdf,-92.937689,47.427155,#23ed0c,medium,rocket
13/02/1965,"Unknown",flying object,insufficient data,https://ia801301.us.archive.org/zipview.php?zip=/8/items/bluebook/1960s.zip&file=1960s%2F1965-02-8723843-Unknown.pdf,-77.2941536448326,25.0387049,#23ed0c,medium,rocket
13/02/1965,"Costa Mesa, California",flying object,ground light,https://ia601301.us.archive.org/zipview.php?zip=/8/items/bluebook/1960s.zip&file=1960s%2F1965-02-8723847-CostaMesa-California.pdf,-117.903317,33.6633386,#23ed0c,medium,rocket
15/02/1965,"Alexandria, Va",flying object,birds,https://ia801301.us.archive.org/zipview.php?zip=/8/items/bluebook/1960s.zip&file=1960s%2F1965-02-8723857-Alexandria-Va.pdf,-77.0902476527272,38.8147596,#23ed0c,medium,rocket
15/02/1965,"Hyattsville, Maryland",flying object,aircraft,https://ia801301.us.archive.org/zipview.php?zip=/8/items/bluebook/1960s.zip&file=1960s%2F1965-02-8723882-Hyattsville-Maryland.pdf,-76.9408758,38.9529792,#23ed0c,medium,rocket
16/02/1965,"South Dakota",flying object,Astro(meteor),https://ia801301.us.archive.org/zipview.php?zip=/8/items/bluebook/1960s.zip&file=1960s%2F1965-02-8723905-SouthDakota.pdf,-100.348761,44.6471761,#23ed0c,medium,rocket
18/02/1965,"Dayton, Ohio",flying object,aircraft,https://ia801301.us.archive.org/zipview.php?zip=/8/items/bluebook/1960s.zip&file=1960s%2F1965-02-8723915-Dayton-Ohio.pdf,-84.1916069,39.7589478,#23ed0c,medium,rocket
18/02/1965,"Newport News,Virginia",flying object,unreliable report,https://ia601301.us.archive.org/zipview.php?zip=/8/items/bluebook/1960s.zip&file=1960s%2F1965-02-8723932-NewportNews-Virginia.pdf,-76.4321089,36.9786449,#23ed0c,medium,rocket
18/02/1965,"Kansas City, Mo",flying object,satellite,https://ia801301.us.archive.org/zipview.php?zip=/8/items/bluebook/1960s.zip&file=1960s%2F1965-02-8723943-KansasCity-Mo.pdf,-94.5781416,39.100105,#23ed0c,medium,rocket
18/02/1965,"Colorado Woodland Park, Colorado",flying object,Astro(meteor),https://ia801301.us.archive.org/zipview.php?zip=/8/items/bluebook/1960s.zip&file=1960s%2F1965-02-8723971-Colorado-WoodlandPark-Colorado.pdf,-105.067089,39.0160095,#23ed0c,medium,rocket
20/02/1965,"Hugo, Oklahoma",flying object,balloon,https://ia601301.us.archive.org/zipview.php?zip=/8/items/bluebook/1960s.zip&file=1960s%2F1965-02-8723991-Hugo-Oklahoma.pdf,-95.5128978,34.010946,#23ed0c,medium,rocket
21/02/1965,"Washington, DC",flying object,Astro(Acturus),https://ia601301.us.archive.org/zipview.php?zip=/8/items/bluebook/1960s.zip&file=1960s%2F1965-02-8724001-Washington-DC.pdf,-77.0365625,38.8950092,#23ed0c,medium,rocket
21/02/1965,"Kingsley Field, Oregon",flying object,Astro(meteor),https://ia801301.us.archive.org/zipview.php?zip=/8/items/bluebook/1960s.zip&file=1960s%2F1965-02-8724007-KingsleyField-Oregon.pdf,-121.739790375145,42.15475295,#23ed0c,medium,rocket
22/02/1965,"Olean, New York",flying object,Astro(Acturus),https://ia801301.us.archive.org/zipview.php?zip=/8/items/bluebook/1960s.zip&file=1960s%2F1965-02-9557058-Olean-NewYork.pdf,-78.4297419,42.077565,#23ed0c,medium,rocket
25/02/1965,"S Rockville, Maryland",flying object,birds,https://ia601301.us.archive.org/zipview.php?zip=/8/items/bluebook/1960s.zip&file=1960s%2F1965-02-8724026-SRockville-Maryland.pdf,-77.1527573,39.0840054,#23ed0c,medium,rocket
25/02/1965,"Houma, Louisiana",flying object,aircraft,https://ia601301.us.archive.org/zipview.php?zip=/8/items/bluebook/1960s.zip&file=1960s%2F1965-02-8724043-Houma-Louisiana.pdf,-90.7195348,29.5957696,#23ed0c,medium,rocket
27/02/1965,"Rivesville, W Virginia",flying object,psychological,https://ia801301.us.archive.org/zipview.php?zip=/8/items/bluebook/1960s.zip&file=1960s%2F1965-02-8724085-Rivesville-WVirginia.pdf,-80.1167417,39.5298059,#23ed0c,medium,rocket
27/02/1965,"Ft Benning, Georgia",light ,satellite,https://ia801301.us.archive.org/zipview.php?zip=/8/items/bluebook/1960s.zip&file=1960s%2F1965-02-8724068-FtBenning-Georgia.pdf,-84.9688191,32.3523691,#2c72ce,medium,cross
02/03/1965,"Dayton, Ohio",flying object,aircraft,https://ia801301.us.archive.org/zipview.php?zip=/8/items/bluebook/1960s.zip&file=1960s%2F1965-03-8724147-Dayton-Ohio.pdf,-84.1916069,39.7589478,#23ed0c,medium,rocket
02/03/1965,"Brooksville, Florida",flying object,hoax,https://ia801301.us.archive.org/zipview.php?zip=/8/items/bluebook/1960s.zip&file=1960s%2F1965-03-9070256-Brooksville-Florida.pdf,-82.3924737,28.5559352,#23ed0c,medium,rocket
03/03/1965,"Louisiana",light,aircraft,https://ia801301.us.archive.org/zipview.php?zip=/8/items/bluebook/1960s.zip&file=1960s%2F1965-03-8724171-%5BILLEGIBLE%5D.pdf,-92.007126,30.8703881,#ebe30f,medium,star
04/03/1965,"New York City",flying object,satellite,https://ia801301.us.archive.org/zipview.php?zip=/8/items/bluebook/1960s.zip&file=1960s%2F1965-03-8724245-NewYorkCity-NewYork.pdf,-73.9871558,40.7308619,#23ed0c,medium,rocket
04/03/1965,"Corvallis, Oregon",light,unidentified,https://ia801301.us.archive.org/zipview.php?zip=/8/items/bluebook/1960s.zip&file=1960s%2F1965-03-8724286-Corvallis-Oregon.pdf,-123.2620435,44.5645659,#ebe30f,medium,star
05/03/1965,"Albuquerque, New Mexico",flying object,aircraft,https://ia801301.us.archive.org/zipview.php?zip=/8/items/bluebook/1960s.zip&file=1960s%2F1965-03-8724344-Albuquerque-NewMexico.pdf,-106.6509851,35.0841034,#23ed0c,medium,rocket
06/03/1965,"Washington, DC",flying object,Astro(meteor),https://ia601301.us.archive.org/zipview.php?zip=/8/items/bluebook/1960s.zip&file=1960s%2F1965-03-8724403-Washington-DC.pdf,-77.0365625,38.8950092,#23ed0c,medium,rocket
09/03/1965,"Dayton, Ohio",light,aircraft,https://ia801301.us.archive.org/zipview.php?zip=/8/items/bluebook/1960s.zip&file=1960s%2F1965-03-8724147-Dayton-Ohio.pdf,-84.1916069,39.7589478,#ebe30f,medium,star
10/03/1965,"Deer Park, Maryland",flying object,balloon,https://ia801301.us.archive.org/zipview.php?zip=/8/items/bluebook/1960s.zip&file=1960s%2F1965-03-8724500-DeerPark-Maryland.pdf,-76.3085694,39.6417726,#23ed0c,medium,rocket
10/03/1965,"Beverly, Ohio",light,psychological,https://ia801301.us.archive.org/zipview.php?zip=/8/items/bluebook/1960s.zip&file=1960s%2F1965-03-8724171-%5BILLEGIBLE%5D.pdf,-81.6393772,39.5480179,#ebe30f,medium,star
10/03/1965,"Kansas City, Missouri",light,Astro(Jupiter),https://ia801301.us.archive.org/zipview.php?zip=/8/items/bluebook/1960s.zip&file=1960s%2F1965-03-8724458-KansasCity-Missouri.pdf,-94.5781416,39.100105,#ebe30f,medium,star
10/03/1965,"Youngstown, Ohio",light,psychological ,https://ia601301.us.archive.org/zipview.php?zip=/8/items/bluebook/1960s.zip&file=1960s%2F1965-03-8724556-Youngstown-Ohio.pdf,-80.6520161,41.1035786,#ebe30f,medium,star
11/03/1965,"Jacksonville, Florida",flare,Astro(meteor),https://ia801301.us.archive.org/zipview.php?zip=/8/items/bluebook/1960s.zip&file=1960s%2F1965-03-8724594-Jacksonville-Florida.pdf,-81.655651,30.3321838,#2c72ce,medium,cross
13/03/1965,"Rochester, New York",flying object,aircraft,https://ia601301.us.archive.org/zipview.php?zip=/8/items/bluebook/1960s.zip&file=1960s%2F1965-03-9068001-Rochester-NewYork.pdf,-77.615214,43.157285,#23ed0c,medium,rocket
15/03/1965,"Lincoln, Nebraska",light,aircraft,https://ia801301.us.archive.org/zipview.php?zip=/8/items/bluebook/1960s.zip&file=1960s%2F1965-03-9068112-Lincoln-Nebraska.pdf,-96.667821,40.8,#ebe30f,medium,star
15/03/1965,"Saigon, South Vietnam",,aircraft,https://ia801301.us.archive.org/zipview.php?zip=/8/items/bluebook/1960s.zip&file=1960s%2F1965-03-9068033-Saigon-SouthVietNam.pdf,106.7017555,10.7758439,#2c72ce,medium,cross
16/03/1965,"Halifax, Nova Scotia and Canada",flying object,satellite,https://ia601301.us.archive.org/zipview.php?zip=/8/items/bluebook/1960s.zip&file=1960s%2F1965-03-9068163-Halifax-NovaScotiaandCanada.pdf,-63.5859487,44.6486237,#23ed0c,medium,rocket
22/03/1965,"Peekskill, NY",flying object,psychological ,https://ia801301.us.archive.org/zipview.php?zip=/8/items/bluebook/1960s.zip&file=1960s%2F1965-03-9068604-Peekskill-N-Y.pdf,-73.9204922,41.289811,#23ed0c,medium,rocket
25/03/1965,"Rangoon, Burma",light,Astro(meteor),https://ia801301.us.archive.org/zipview.php?zip=/8/items/bluebook/1960s.zip&file=1960s%2F1965-03-9068803-Rangoon-Burma.pdf,96.1609916,16.7967129,#ebe30f,medium,star
26/03/1965,"Florida",flying object,,https://ia801301.us.archive.org/zipview.php?zip=/8/items/bluebook/1960s.zip&file=1960s%2F1965-03-8724171-%5BILLEGIBLE%5D.pdf,-81.4639835,27.7567667,#23ed0c,medium,rocket
27/03/1965,"Springfield, Ohio",light,aircraft,https://ia801301.us.archive.org/zipview.php?zip=/8/items/bluebook/1960s.zip&file=1960s%2F1965-03-9068956-Springfield-Ohio.pdf,-83.8088172,39.9242266,#ebe30f,medium,star
30/03/1965,"Dayton, Ohio",flying object,Astro(Aldebaran),https://ia801301.us.archive.org/zipview.php?zip=/8/items/bluebook/1960s.zip&file=1960s%2F1965-03-8724147-Dayton-Ohio.pdf,-84.1916069,39.7589478,#23ed0c,medium,rocket
30/03/1965,"Barberton, Ohio",flying object,insufficient data ,https://ia801301.us.archive.org/zipview.php?zip=/8/items/bluebook/1960s.zip&file=1960s%2F1965-03-9069130-Barberton-Ohio.pdf,-81.6051221,41.012833,#23ed0c,medium,rocket
30/03/1965,"Dayton, Ohio",light,aircraft,https://ia801301.us.archive.org/zipview.php?zip=/8/items/bluebook/1960s.zip&file=1960s%2F1965-03-8724147-Dayton-Ohio.pdf,-84.1916069,39.7589478,#ebe30f,medium,star
30/03/1965,"Bellbrook, Ohio",light,aircraft,https://ia601301.us.archive.org/zipview.php?zip=/8/items/bluebook/1960s.zip&file=1960s%2F1965-03-9069571-Bellbrook-Ohio.pdf,-84.0701766,39.6358399,#ebe30f,medium,star
30/03/1965,"Pacific, California",light,Astro(meteor),https://ia601301.us.archive.org/zipview.php?zip=/8/items/bluebook/1960s.zip&file=1960s%2F1965-03-9069656-Pacific100miWCalifornia.pdf,-120.5071461,38.7601815,#ebe30f,medium,star
30/03/1965,"Lewisburg, Ohio",light,Astro(Jupiter),https://ia601301.us.archive.org/zipview.php?zip=/8/items/bluebook/1960s.zip&file=1960s%2F1965-03-9070961-Lewisburg-Ohio.pdf,-84.5396736,39.8461629,#ebe30f,medium,star
31/03/1965,"Dayton, Ohio",flying object,aircraft,https://ia801301.us.archive.org/zipview.php?zip=/8/items/bluebook/1960s.zip&file=1960s%2F1965-03-8724147-Dayton-Ohio.pdf,-84.1916069,39.7589478,#23ed0c,medium,rocket
31/03/1965,"Larson AFB",flying object,Astro(meteor),https://ia801301.us.archive.org/zipview.php?zip=/8/items/bluebook/1960s.zip&file=1960s%2F1965-03-9069706-LarsonAFB-Washington.pdf,-95.9658174,41.1262955,#23ed0c,medium,rocket
31/03/1965,"Dayton, Ohio",light,Astro(Mars),https://ia801301.us.archive.org/zipview.php?zip=/8/items/bluebook/1960s.zip&file=1960s%2F1965-03-8724147-Dayton-Ohio.pdf,-84.1916069,39.7589478,#ebe30f,medium,star
04/1965,"Pittsburgh, Pennsylvania",light,insufficient data ,https://ia801301.us.archive.org/zipview.php?zip=/8/items/bluebook/1960s.zip&file=1960s%2F1965-04-9071191-Pittsburgh-Pennsylvania.pdf,-79.9900861,40.4416941,#ebe30f,medium,star
01/04/1965,"Dayton, Ohio",light,Astro(Mars),https://ia801301.us.archive.org/zipview.php?zip=/8/items/bluebook/1960s.zip&file=1960s%2F1965-04-9071223-Dayton-Ohio.pdf,-84.1916069,39.7589478,#ebe30f,medium,star
04/04/1965,"Keesler AFB, Mississippi",flying object,unidentified,https://ia801301.us.archive.org/zipview.php?zip=/8/items/bluebook/1960s.zip&file=1960s%2F1965-04-9071466-KeeslerAFB-Mississippi.pdf,-88.9188649672589,30.4094294,#23ed0c,medium,rocket
04/04/1965,"Florida",light,satellite,https://ia801301.us.archive.org/zipview.php?zip=/8/items/bluebook/1960s.zip&file=1960s%2F1965-04-9071286-%5BILLEGIBLE%5D.pdf,-81.4639835,27.7567667,#ebe30f,medium,star
04/04/1965,"Tampa, Florida",light,cellometer,https://ia801301.us.archive.org/zipview.php?zip=/8/items/bluebook/1960s.zip&file=1960s%2F1965-04-9071538-Tampa-Florida.pdf,-82.458444,27.9477595,#ebe30f,medium,star
06/04/1965,"Fairfax, Virginia",flying object,balloon,https://ia801301.us.archive.org/zipview.php?zip=/8/items/bluebook/1960s.zip&file=1960s%2F1965-04-9071615-Fairfax-Virginia.pdf,-77.3063733,38.8462236,#23ed0c,medium,rocket
06/04/1965,"Dundee, Minnesota",flying object,unidentified,https://ia601301.us.archive.org/zipview.php?zip=/8/items/bluebook/1960s.zip&file=1960s%2F1965-04-9071643-Dundee-Minnesota.pdf,-95.4669479,43.8469059,#23ed0c,medium,rocket
09/04/1965,"Duluth, Minnesota",flying object,balloon,https://ia601301.us.archive.org/zipview.php?zip=/8/items/bluebook/1960s.zip&file=1960s%2F1965-04-9071683-Duluth-Minnesota.pdf,-92.1251218,46.7729322,#23ed0c,medium,rocket
14/04/1965,"Lodi, New Jersey",flying object,satellite,https://ia801301.us.archive.org/zipview.php?zip=/8/items/bluebook/1960s.zip&file=1960s%2F1965-04-9071831-Lodi-NewJersey.pdf,-74.0831971,40.8823215,#23ed0c,medium,rocket
15/04/1965,"Durand, Illinois",flying object,Astro(meteor),https://ia601301.us.archive.org/zipview.php?zip=/8/items/bluebook/1960s.zip&file=1960s%2F1965-04-9071865-Durand-Illinois.pdf,-89.3320582,42.4364033,#23ed0c,medium,rocket
15/04/1965,"Omaha, Nebraska",light,aircraft,https://ia801301.us.archive.org/zipview.php?zip=/8/items/bluebook/1960s.zip&file=1960s%2F1965-04-9071956-Omaha-Nebraska.pdf,-95.9378732,41.2587317,#ebe30f,medium,star
16/04/1965,"NW of Indianapolis, Indiana",flying object,Astro(meteor),https://ia601301.us.archive.org/zipview.php?zip=/8/items/bluebook/1960s.zip&file=1960s%2F1965-04-9071996-NWofIndianapolis-Indiana.pdf,-86.162618335981,39.76861465,#23ed0c,medium,rocket
20/04/1965,"Richardson, Texas",flying object,insufficient data ,https://ia601301.us.archive.org/zipview.php?zip=/8/items/bluebook/1960s.zip&file=1960s%2F1965-04-9072490-Richardson-Texas.pdf,-96.7297206,32.9481789,#23ed0c,medium,rocket
20/04/1965,"Boyertown, Pennsylvania",flying object,birds,https://ia601301.us.archive.org/zipview.php?zip=/8/items/bluebook/1960s.zip&file=1960s%2F1965-04-9072506-Boyertown-Pennsylvania.pdf,-75.6374083,40.3337075,#23ed0c,medium,rocket
20/04/1965,"Coden, Alabama",light,insufficient data ,https://ia601301.us.archive.org/zipview.php?zip=/8/items/bluebook/1960s.zip&file=1960s%2F1965-04-9072054-Coden-Alabama.pdf,-88.2383363,30.3829771,#ebe30f,medium,star
29/04/1965,"Winter Park, Florida",flying object,aircraft,https://ia801301.us.archive.org/zipview.php?zip=/8/items/bluebook/1960s.zip&file=1960s%2F1965-04-9072397-WinterPark-Florida.pdf,-81.3427438436485,28.6000625,#23ed0c,medium,rocket
29/04/1965,"Washington, DC",light,satellite,https://ia801301.us.archive.org/zipview.php?zip=/8/items/bluebook/1960s.zip&file=1960s%2F1965-04-9072436-Washington-D-C.pdf,-77.0365625,38.8950092,#ebe30f,medium,star
01/05/1965,"Dayton, Ohio",flying object,satellite,https://ia601301.us.archive.org/zipview.php?zip=/8/items/bluebook/1960s.zip&file=1960s%2F1965-05-9072731-Dayton-Ohio.pdf,-84.1916069,39.7589478,#23ed0c,medium,rocket
05/1965,"Burlington, Massachusetts",light,unreliable report,https://ia801301.us.archive.org/zipview.php?zip=/8/items/bluebook/1960s.zip&file=1960s%2F1965-05-9072586-Burlington-Massachusetts.pdf,-71.1956111,42.5048167,#ebe30f,medium,star
02/05/1965,"Clarksville, Ohio",flying object,satellite,https://ia801301.us.archive.org/zipview.php?zip=/8/items/bluebook/1960s.zip&file=1960s%2F1965-05-9073413-Clarksville-Ohio.pdf,-82.2912613,39.7053462,#23ed0c,medium,rocket
02/05/1965,"College Park, Georgia",light,satellite,https://ia801301.us.archive.org/zipview.php?zip=/8/items/bluebook/1960s.zip&file=1960s%2F1965-05-9073260-CollegePark-Georgia.pdf,-84.4493725,33.6534427,#ebe30f,medium,star
03/05/1965,"Chesapeake, Virginia",flying object,satellite,https://ia801301.us.archive.org/zipview.php?zip=/8/items/bluebook/1960s.zip&file=1960s%2F1965-05-9073481-Chesapeake-Virginia.pdf,-76.2466798,36.7183708,#23ed0c,medium,rocket
04/05/1965,"Piedmont, Alabama",flying object,satellite,https://ia801301.us.archive.org/zipview.php?zip=/8/items/bluebook/1960s.zip&file=1960s%2F1965-05-9073518-Piedmont-Alabama.pdf,-85.6113501,33.9245454,#23ed0c,medium,rocket
06/05/1965,"Brookville, Ohio",flying object,aircraft,https://ia601301.us.archive.org/zipview.php?zip=/8/items/bluebook/1960s.zip&file=1960s%2F1965-05-9073588-Brookville-Ohio.pdf,-84.4113366,39.8367207,#23ed0c,medium,rocket
07/05/1965,"Oxford, Michigan",flying object,unidentified,https://ia801301.us.archive.org/zipview.php?zip=/8/items/bluebook/1960s.zip&file=1960s%2F1965-05-9073625-Oxford-Michigan.pdf,-83.2646624,42.8247524,#23ed0c,medium,rocket
07/05/1965,"Pearl Harbor, Hawaii",flying object,satellite,https://ia801301.us.archive.org/zipview.php?zip=/8/items/bluebook/1960s.zip&file=1960s%2F1965-05-9073675-PearlHarbor-Hawaii.pdf,-157.999129760136,21.35577485,#23ed0c,medium,rocket
07/05/1965,"Anaheim, California",flying object,satellite,https://ia601301.us.archive.org/zipview.php?zip=/8/items/bluebook/1960s.zip&file=1960s%2F1965-05-9073716-Anaheim-California.pdf,-117.911732,33.8347516,#23ed0c,medium,rocket
09/05/1965,"Mequon, Wisconsin",flying object,aircraft,https://ia801301.us.archive.org/zipview.php?zip=/8/items/bluebook/1960s.zip&file=1960s%2F1965-05-9073791-Mequon-Wisconsin.pdf,-87.9822969,43.2219088,#23ed0c,medium,rocket
13/05/1965,"Storm Lake, Iowa",flying object,aircraft,https://ia801301.us.archive.org/zipview.php?zip=/8/items/bluebook/1960s.zip&file=1960s%2F1965-05-9073843-StormLake-Iowa.pdf,-95.1992916,42.6453271,#23ed0c,medium,rocket
13/05/1965,"Orlando, Florida",light,aircraft,https://ia801301.us.archive.org/zipview.php?zip=/8/items/bluebook/1960s.zip&file=1960s%2F1965-05-9073829-Orlando-Florida.pdf,-81.3790388,28.5421097,#ebe30f,medium,star
15/05/1965,"Oil City, Pennsylvania",flying object,aircraft,https://ia601301.us.archive.org/zipview.php?zip=/8/items/bluebook/1960s.zip&file=1960s%2F1965-05-9073884-OilCity-Pennsylvania.pdf,-79.706441,41.433948,#23ed0c,medium,rocket
17/05/1965,"Tiffin, Ohio",disc,aircraft,https://ia601301.us.archive.org/zipview.php?zip=/8/items/bluebook/1960s.zip&file=1960s%2F1965-05-9073899-Tiffin-Ohio.pdf,-83.1779537,41.114485,#2c72ce,medium,cross
18/05/1965,"Lewisburg, Ohio",light,aircraft,https://ia801301.us.archive.org/zipview.php?zip=/8/items/bluebook/1960s.zip&file=1960s%2F1965-05-9073972-Lewisburg-Ohio.pdf,-84.5396736,39.8461629,#ebe30f,medium,star
25/05/1965,"Thailand",flying object,rocket,https://ia601301.us.archive.org/zipview.php?zip=/8/items/bluebook/1960s.zip&file=1960s%2F1965-05-9074065-Thailand.pdf,100.83273,14.8971921,#23ed0c,medium,rocket
25/05/1965,"Washington, DC",light,Astro(meteor),https://ia801301.us.archive.org/zipview.php?zip=/8/items/bluebook/1960s.zip&file=1960s%2F1965-05-9074128-Washington-DC.pdf,-77.0365625,38.8950092,#ebe30f,medium,star
26/05/1965,"Lynn, Massachusetts",flying object,insufficient data,https://ia801301.us.archive.org/zipview.php?zip=/8/items/bluebook/1960s.zip&file=1960s%2F1965-05-9074179-Lynn-Massachusetts.pdf,-70.9494939,42.466763,#23ed0c,medium,rocket
27/05/1965,"Economy, Pennsylvania",flying object,aircraft,https://ia601301.us.archive.org/zipview.php?zip=/8/items/bluebook/1960s.zip&file=1960s%2F1965-05-9074164-Economy-Pennsylvania.pdf,-80.1938574,40.631752,#23ed0c,medium,rocket
28/05/1965,"Macon, Georgia",flying object,insufficient data,https://ia801301.us.archive.org/zipview.php?zip=/8/items/bluebook/1960s.zip&file=1960s%2F1965-05-9074191-Macon-Georgia.pdf,-83.6324022,32.8406946,#23ed0c,medium,rocket
29/05/1965,"New Bedford, Massachusetts",flying object,Astro(meteor),https://ia601301.us.archive.org/zipview.php?zip=/8/items/bluebook/1960s.zip&file=1960s%2F1965-05-9074215-NewBedford-Massachusetts.pdf,-70.934205,41.6362152,#23ed0c,medium,rocket
29/05/1965,"Tuscon, Arizona",light,aircraft,https://ia801301.us.archive.org/zipview.php?zip=/8/items/bluebook/1960s.zip&file=1960s%2F1965-05-9074226-Tuscon-Arizona.pdf,-111.0827636,32.3094298,#ebe30f,medium,star
31/05/1965,"Piqua, Ohio",flying object,aircraft,https://ia801301.us.archive.org/zipview.php?zip=/8/items/bluebook/1960s.zip&file=1960s%2F1965-05-9074311-Piqua-Ohio.pdf,-84.2424449,40.1447732,#23ed0c,medium,rocket
31/05/1965,"Belmont, Ohio",,hoax,https://ia801301.us.archive.org/zipview.php?zip=/8/items/bluebook/1960s.zip&file=1960s%2F1965-05-9074292-Belmont-Ohio.pdf,-81.0097516,40.0057737,#2c72ce,medium,cross
05/06/1965,"Sutersville, Pennsylvania",flying object,balloon,https://ia601301.us.archive.org/zipview.php?zip=/8/items/bluebook/1960s.zip&file=1960s%2F1965-06-9074568-Sutersville-Pennsylvania.pdf,-79.8017975,40.2365804,#23ed0c,medium,rocket
05/06/1965,"Marysville, Washington",flying object,aircraft, ,-122.1768209,48.0517429,#23ed0c,medium,rocket
08/06/1965,"Turkey",flying object,radar,https://ia601301.us.archive.org/zipview.php?zip=/8/items/bluebook/1960s.zip&file=1960s%2F1965-06-9074625-Turkey.pdf,34.9249653,38.9597594,#23ed0c,medium,rocket
11/06/1965,"Mobile, Alabama",flying object,Astro(meteor),https://ia601301.us.archive.org/zipview.php?zip=/8/items/bluebook/1960s.zip&file=1960s%2F1965-06-9074646-Mobile-Alabama.pdf,-88.0430541,30.6943566,#23ed0c,medium,rocket
13/06/1965,"Kettering, Ohio",light,satellite,https://ia601301.us.archive.org/zipview.php?zip=/8/items/bluebook/1960s.zip&file=1960s%2F1965-06-9074663-Kettering-Ohio.pdf,-84.1688274,39.6895036,#ebe30f,medium,star
20/06/1965,"Mifflin, Pennsylvania",flying object,balloon,https://ia801301.us.archive.org/zipview.php?zip=/8/items/bluebook/1960s.zip&file=1960s%2F1965-06-9074715-PittsburghArea-Pennsylvania.pdf,-77.6215085,40.6099183,#23ed0c,medium,rocket
05/08/1965,"Chicago, Illinois Area",flying object,balloon,https://ia801301.us.archive.org/zipview.php?zip=/8/items/bluebook/1960s.zip&file=1960s%2F1965-08-7471729-Chicago-IllinoisArea.pdf,-87.6244212,41.8755616,#23ed0c,medium,rocket
05/08/1965,"N Highland, California",flying object,Astro(Acturus),https://ia801301.us.archive.org/zipview.php?zip=/8/items/bluebook/1960s.zip&file=1960s%2F1965-08-7471767-NHighland-California.pdf,-117.2086513,34.1283442,#23ed0c,medium,rocket
05/08/1965,"Des Moines, Iowa",light,Astro(star/planet),https://ia601301.us.archive.org/zipview.php?zip=/8/items/bluebook/1960s.zip&file=1960s%2F1965-08-7471313-DesMoines-Iowa.pdf,-93.6037149,41.5910641,#ebe30f,medium,star
06/08/1965,"Macon, Georgia",flying object,aircraft,https://ia601301.us.archive.org/zipview.php?zip=/8/items/bluebook/1960s.zip&file=1960s%2F1965-08-7471787-Macon-Georgia.pdf,-83.6324022,32.8406946,#23ed0c,medium,rocket
06/08/1965,"Manitou Springs, Colorado",flying object,balloon,https://ia601301.us.archive.org/zipview.php?zip=/8/items/bluebook/1960s.zip&file=1960s%2F1965-08-7471873-ManitouSprings-Colorado.pdf,-104.9178731,38.8585777,#23ed0c,medium,rocket
06/08/1965,"San Rafael, California",light,aircraft,https://ia801301.us.archive.org/zipview.php?zip=/8/items/bluebook/1960s.zip&file=1960s%2F1965-08-7471923-SanRafael-California.pdf,-122.5310874,37.9735346,#ebe30f,medium,star
07/08/1965,"Andrews, Texas",flying object,Astro(meteor),https://ia801301.us.archive.org/zipview.php?zip=/8/items/bluebook/1960s.zip&file=1960s%2F1965-08-7472195-Andrews-Texas.pdf,-102.5457155,32.3187158,#23ed0c,medium,rocket
07/08/1965,"McKinney, Texas",flying object,insufficient data,https://ia801301.us.archive.org/zipview.php?zip=/8/items/bluebook/1960s.zip&file=1960s%2F1965-08-7472234-McKinney-Texas.pdf,-96.6154471,33.1976496,#23ed0c,medium,rocket
07/08/1965,"San Pablo, California",flying object,insufficient data,https://ia601301.us.archive.org/zipview.php?zip=/8/items/bluebook/1960s.zip&file=1960s%2F1965-08-7472268-SanPablo-California.pdf,-122.3455263,37.9621457,#23ed0c,medium,rocket
07/08/1965,"Ft Carson, Colorado",flying object,aircraft,https://ia801301.us.archive.org/zipview.php?zip=/8/items/bluebook/1960s.zip&file=1960s%2F1965-08-7472357-FtCarson-Colorado.pdf,-104.779474394498,38.7415445,#23ed0c,medium,rocket
08/08/1965,"Calumet, Michigan",flying object,Astro(star/planet),https://ia801301.us.archive.org/zipview.php?zip=/8/items/bluebook/1960s.zip&file=1960s%2F1965-08-7472424-Calumet-Michigan.pdf,-88.454006,47.246592,#23ed0c,medium,rocket
08/08/1965,"Seneca, Kansas",flying object,insufficient data,https://ia801301.us.archive.org/zipview.php?zip=/8/items/bluebook/1960s.zip&file=1960s%2F1965-08-7472489-Seneca-Kansas.pdf,-96.064168,39.834165,#23ed0c,medium,rocket
08/08/1965,"Baltimore, Maryland",flying object,aircraft,https://ia601301.us.archive.org/zipview.php?zip=/8/items/bluebook/1960s.zip&file=1960s%2F1965-08-7472507-Baltimore-Maryland.pdf,-76.610759,39.2908816,#23ed0c,medium,rocket
08/08/1965,"Palos Verdes, California",flying object,Astro(Mars),https://ia601301.us.archive.org/zipview.php?zip=/8/items/bluebook/1960s.zip&file=1960s%2F1965-08-7472520-PalosVerdes-California.pdf,-118.3707683,33.7483311,#23ed0c,medium,rocket
08/08/1965,"Minot, North Dakota",flying object,satellite,https://ia801301.us.archive.org/zipview.php?zip=/8/items/bluebook/1960s.zip&file=1960s%2F1965-08-7472666-Minot-NorthDakota.pdf,-101.296273,48.23251,#23ed0c,medium,rocket
08/08/1965,"Fresno, California",flying object,insufficient data,https://ia801301.us.archive.org/zipview.php?zip=/8/items/bluebook/1960s.zip&file=1960s%2F1965-08-7472683-Fresno-California.pdf,-119.708861260756,36.7295295,#23ed0c,medium,rocket
09/08/1965,"Hollywood Hills, California",ball,satellite,https://ia801301.us.archive.org/zipview.php?zip=/8/items/bluebook/1960s.zip&file=1960s%2F1965-08-7472790-HollywoodHills-California.pdf,-118.3355474,34.1311792,#952dcd,medium,circle
09/08/1965,"Proctor, Minnesota",flying object,Astro(Antares),https://ia601301.us.archive.org/zipview.php?zip=/8/items/bluebook/1960s.zip&file=1960s%2F1965-08-7472734-Proctor-Minnesota.pdf,-92.2254695,46.7471638,#23ed0c,medium,rocket
09/08/1965,"Montrose, Colorado",flying object,satellite,https://ia801301.us.archive.org/zipview.php?zip=/8/items/bluebook/1960s.zip&file=1960s%2F1965-08-7472860-Montrose-Colorado.pdf,-107.8762771,38.4781927,#23ed0c,medium,rocket
09/08/1965,"Cedar Rapids, Iowa",light,Astro(meteor),https://ia801301.us.archive.org/zipview.php?zip=/8/items/bluebook/1960s.zip&file=1960s%2F1965-08-7472711-CedarRapids-Iowa.pdf,-91.6704053,41.9758872,#ebe30f,medium,star
10/08/1965,"Suffolk County, NY",flying object,aircraft,https://ia601301.us.archive.org/zipview.php?zip=/8/items/bluebook/1960s.zip&file=1960s%2F1965-08-7472974-SuffolkCounty-NY.pdf,-72.8578027,40.8832318,#23ed0c,medium,rocket
10/08/1965,"Orlando, Florida",flying object,Astro(Venus),https://ia801301.us.archive.org/zipview.php?zip=/8/items/bluebook/1960s.zip&file=1960s%2F1965-08-7473094-Orlando-Florida.pdf,-81.3790388,28.5421097,#23ed0c,medium,rocket
10/08/1965,"Phoenix, Arizona",flying object,Astro(meteor),https://ia601301.us.archive.org/zipview.php?zip=/8/items/bluebook/1960s.zip&file=1960s%2F1965-08-7473170-Phoenix-Arizona.pdf,-112.0773456,33.4485866,#23ed0c,medium,rocket
10/08/1965,"Los Angeles, California",flying object,Astro(Mars),https://ia801301.us.archive.org/zipview.php?zip=/8/items/bluebook/1960s.zip&file=1960s%2F1965-08-7473209-LosAngeles-California.pdf,-118.2427669,34.0536834,#23ed0c,medium,rocket
10/08/1965,"Freemont, California",flying object,aircraft,https://ia601301.us.archive.org/zipview.php?zip=/8/items/bluebook/1960s.zip&file=1960s%2F1965-08-7473235-Freemont-California.pdf,-120.316785,37.2905222,#23ed0c,medium,rocket
11/08/1965,"Waterford, Connecticut",flying object,imagination,https://ia801301.us.archive.org/zipview.php?zip=/8/items/bluebook/1960s.zip&file=1960s%2F1965-08-7473267-Waterford-Connecticut.pdf,-72.1519367,41.358659,#23ed0c,medium,rocket
11/08/1965,"Albany, New York",flying object,aircraft,https://ia801301.us.archive.org/zipview.php?zip=/8/items/bluebook/1960s.zip&file=1960s%2F1965-08-7473357-Albany-NewYork.pdf,-73.754968,42.6511674,#23ed0c,medium,rocket
11/08/1965,"Far Rockaway, New York",flying object,Astro(meteor),https://ia801301.us.archive.org/zipview.php?zip=/8/items/bluebook/1960s.zip&file=1960s%2F1965-08-7473745-FarRockaway-NewYork.pdf,-73.7551326,40.6053825,#23ed0c,medium,rocket
11/08/1965,"Zionsville, Indiana",flying object,aircraft,https://ia801301.us.archive.org/zipview.php?zip=/8/items/bluebook/1960s.zip&file=1960s%2F1965-08-7473800-Zionsville-Indiana.pdf,-86.2616968,39.950724,#23ed0c,medium,rocket
11/08/1965,"Pueblo, Colorado",flying object,Astro(star/planet),https://ia801301.us.archive.org/zipview.php?zip=/8/items/bluebook/1960s.zip&file=1960s%2F1965-08-7473906-Pueblo-Colorado.pdf,-104.609141,38.2544472,#23ed0c,medium,rocket
11/08/1965,"Prospect Heights, Illinois",flying object,Astro(Capella),https://ia801301.us.archive.org/zipview.php?zip=/8/items/bluebook/1960s.zip&file=1960s%2F1965-08-7474011-ProspectHeights-Illinois.pdf,-87.9375694,42.0953049,#23ed0c,medium,rocket
11/08/1965,"Whiteman AFB, Missouri",flying object,Astro(star/planet),https://ia801301.us.archive.org/zipview.php?zip=/8/items/bluebook/1960s.zip&file=1960s%2F1965-08-7474203-WhitemanAFB-Missouri.pdf,-93.5614331941913,38.7298305,#23ed0c,medium,rocket
11/08/1965,"Richmond, Walnut Creek, California",light,Astro(Reflected Moonlight),https://ia601301.us.archive.org/zipview.php?zip=/8/items/bluebook/1960s.zip&file=1960s%2F1965-08-7473291-Richmond-WalnutCreek-California.pdf,-122.268631726891,37.8816725,#ebe30f,medium,star
12/08/1965,"Ramona, California",flying object,insufficient data,https://ia801301.us.archive.org/zipview.php?zip=/8/items/bluebook/1960s.zip&file=1960s%2F1965-08-7474756-Ramona-California.pdf,-116.867513220741,33.035378,#23ed0c,medium,rocket
12/08/1965,"Duluth, Minnesota",flying object,satellite,https://ia801301.us.archive.org/zipview.php?zip=/8/items/bluebook/1960s.zip&file=1960s%2F1965-08-7474855-Duluth-Minnesota.pdf,-92.1251218,46.7729322,#23ed0c,medium,rocket
12/08/1965,"Amarillo,Texas",flying object,insufficient data,https://ia801301.us.archive.org/zipview.php?zip=/8/items/bluebook/1960s.zip&file=1960s%2F1965-08-7475136-Amarillo-Texas.pdf,-101.8338246,35.2072185,#23ed0c,medium,rocket
12/08/1965,"Seattle, Washington",flying object,aircraft,https://ia801301.us.archive.org/zipview.php?zip=/8/items/bluebook/1960s.zip&file=1960s%2F1965-08-7475341-Seattle-Washington.pdf,-122.3300624,47.6038321,#23ed0c,medium,rocket
12/08/1965,"Pleasant Hill, Missouri",light,Astro(Antares),https://ia801301.us.archive.org/zipview.php?zip=/8/items/bluebook/1960s.zip&file=1960s%2F1965-08-7475417-PleasantHill-Missouri.pdf,-94.2455016,38.7938983,#ebe30f,medium,star
12/08/1965,"Toledo, Ohio",light,aircraft,https://ia601301.us.archive.org/zipview.php?zip=/8/items/bluebook/1960s.zip&file=1960s%2F1965-08-7475480-Toledo-Ohio.pdf,-83.5127283,41.6786754,#ebe30f,medium,star
12/08/1965,"Happy, Texas",light ,Astro(meteor),https://ia801301.us.archive.org/zipview.php?zip=/8/items/bluebook/1960s.zip&file=1960s%2F1965-08-7475278-Happy-Texas.pdf,-101.8546322,34.7436704,#2c72ce,medium,cross
13/08/1965,"Beaver, Pennsylvania",flying object,Astro(star/planet),https://ia601301.us.archive.org/zipview.php?zip=/8/items/bluebook/1960s.zip&file=1960s%2F1965-08-7475534-Beaver-Pennsylvania.pdf,-80.3709999,40.6916624,#23ed0c,medium,rocket
13/08/1965,"Courcelles, Belgium",flying object,satellite,https://ia801301.us.archive.org/zipview.php?zip=/8/items/bluebook/1960s.zip&file=1960s%2F1965-08-7475549-Courcelles-Belgium.pdf,4.3763406,50.4601576,#23ed0c,medium,rocket
13/08/1965,"Miamisburg, Ohio",flying object,Astro(star/planet),https://ia801301.us.archive.org/zipview.php?zip=/8/items/bluebook/1960s.zip&file=1960s%2F1965-08-7475564-Miamisburg-Ohio.pdf,-84.2866083,39.6428362,#23ed0c,medium,rocket
13/08/1965,"Baden, Pennsylvania",flying object,hoax,https://ia801301.us.archive.org/zipview.php?zip=/8/items/bluebook/1960s.zip&file=1960s%2F1965-08-7475631-Baden-Pennsylvania.pdf,-80.2281159,40.6350668,#23ed0c,medium,rocket
14/08/1965,"Newport News, Virginia",flying object,satellite,https://ia801301.us.archive.org/zipview.php?zip=/8/items/bluebook/1960s.zip&file=1960s%2F1965-08-7475992-NewportNews-Virginia.pdf,-76.4321089,36.9786449,#23ed0c,medium,rocket
15/08/1965,"Calumet City, Illinois",flying object,aircraft,https://ia601301.us.archive.org/zipview.php?zip=/8/items/bluebook/1960s.zip&file=1960s%2F1965-08-7476027-CalumetCity-Illinois.pdf,-87.5295837,41.616016,#23ed0c,medium,rocket
15/08/1965,"Portsmouth, Virginia",flying object,unreliable report,https://ia801301.us.archive.org/zipview.php?zip=/8/items/bluebook/1960s.zip&file=1960s%2F1965-08-7476161-Portsmouth-Virginia.pdf,-76.2982742,36.8354258,#23ed0c,medium,rocket
15/08/1965,"Bryte, California",flying object,Astro(Mars),https://ia601301.us.archive.org/zipview.php?zip=/8/items/bluebook/1960s.zip&file=1960s%2F1965-08-7476278-Bryte-California.pdf,-121.5416232,38.5946272,#23ed0c,medium,rocket
15/08/1965,"Thackery, Ohio",flying object,aircraft,https://ia801301.us.archive.org/zipview.php?zip=/8/items/bluebook/1960s.zip&file=1960s%2F1965-08-7476302-Thackery-Ohio.pdf,-83.9188225,40.0556136,#23ed0c,medium,rocket
16/08/1965,"Little Rock, Arkansas",flying object,satellite,https://ia801301.us.archive.org/zipview.php?zip=/8/items/bluebook/1960s.zip&file=1960s%2F1965-08-9369205-LittleRockArk.pdf,-92.2895948,34.7464809,#23ed0c,medium,rocket
16/08/1965,"Little Rock, Arkansas",flying object,satellite,https://ia801301.us.archive.org/zipview.php?zip=/8/items/bluebook/1960s.zip&file=1960s%2F1965-08-9369212-LittleRock-Arkansas.pdf,-92.2895948,34.7464809,#23ed0c,medium,rocket
16/08/1965,"Columbus, Ohio",flying object,aircraft,https://ia601301.us.archive.org/zipview.php?zip=/8/items/bluebook/1960s.zip&file=1960s%2F1965-08-9369249-Columbus-Ohio.pdf,-83.0007065,39.9622601,#23ed0c,medium,rocket
16/08/1965,"South Wardsboro, Vermont",flying object,aircraft,https://ia801301.us.archive.org/zipview.php?zip=/8/items/bluebook/1960s.zip&file=1960s%2F1965-08-9369286-SouthWardsboro-Vermont.pdf,-72.7834293,43.0114684,#23ed0c,medium,rocket
16/08/1965,"Cleveland, Ohio",flying object,satellite,https://ia601301.us.archive.org/zipview.php?zip=/8/items/bluebook/1960s.zip&file=1960s%2F1965-08-9369315-Cleveland-Ohio.pdf,-81.6934446,41.5051613,#23ed0c,medium,rocket
16/08/1965,"Kingston, New York",flying object,satellite,https://ia801301.us.archive.org/zipview.php?zip=/8/items/bluebook/1960s.zip&file=1960s%2F1965-08-9369379-Kingston-NewYork.pdf,-74.0023702,41.9287812,#23ed0c,medium,rocket
16/08/1965,"Trotwood, Ohio",flying object,satellite,https://ia601301.us.archive.org/zipview.php?zip=/8/items/bluebook/1960s.zip&file=1960s%2F1965-08-9369426-Trotwood-Ohio.pdf,-84.3113334,39.7972788,#23ed0c,medium,rocket
17/08/1965,"Ottawa, Illinois",flying object,Astro(meteor),https://ia801301.us.archive.org/zipview.php?zip=/8/items/bluebook/1960s.zip&file=1960s%2F1965-08-9369502-Ottawa-Illinois.pdf,-88.845436,41.3516628,#23ed0c,medium,rocket
18/08/1965,"Trenton, Ohio",flying object,Astro(Capella),https://ia801301.us.archive.org/zipview.php?zip=/8/items/bluebook/1960s.zip&file=1960s%2F1965-08-9369522-Trenton-Ohio.pdf,-84.4577222,39.4808905,#23ed0c,medium,rocket
18/08/1965,"Summer, Washington",flying object,ground light,https://ia601301.us.archive.org/zipview.php?zip=/8/items/bluebook/1960s.zip&file=1960s%2F1965-08-9369577-Summer-Washington.pdf,-119.2940776,47.5028089,#23ed0c,medium,rocket
20/08/1965,"Scranton, Pennsylvania",flying object,aircraft,https://ia801301.us.archive.org/zipview.php?zip=/8/items/bluebook/1960s.zip&file=1960s%2F1965-08-9369851-Scranton-Pennsylvania.pdf,-75.6621294,41.4086874,#23ed0c,medium,rocket
20/08/1965,"Plattsburg, New York",flying object,aircraft,https://ia601301.us.archive.org/zipview.php?zip=/8/items/bluebook/1960s.zip&file=1960s%2F1965-08-9369883-Plattsburg-NewYork.pdf,-73.45562,44.69282,#23ed0c,medium,rocket
20/08/1965,"New Milford, Connecticut",flying object,birds,https://ia601301.us.archive.org/zipview.php?zip=/8/items/bluebook/1960s.zip&file=1960s%2F1965-08-9370081-NewMilford-Connecticut.pdf,-73.4117653831255,41.5867418,#23ed0c,medium,rocket
21/08/1965,"Orting, Washington",flying object,ground light,https://ia801301.us.archive.org/zipview.php?zip=/8/items/bluebook/1960s.zip&file=1960s%2F1965-08-9370062-Orting-Washington.pdf,-122.2042824,47.0978795,#23ed0c,medium,rocket
21/08/1965,"Island Park, NewYork",light,ground light,https://ia601301.us.archive.org/zipview.php?zip=/8/items/bluebook/1960s.zip&file=1960s%2F1965-08-9370010-IslandPark-NewYork.pdf,139.7630049,35.7251496,#ebe30f,medium,star
22/08/1965,"Lancaster, California",flying object,aircraft,https://ia801301.us.archive.org/zipview.php?zip=/8/items/bluebook/1960s.zip&file=1960s%2F1965-08-9370156-Lancaster-California.pdf,-118.1366153,34.6981064,#23ed0c,medium,rocket
23/08/1965,"Bogata, Columbia",flying object,Astro(Jupiter),https://ia801301.us.archive.org/zipview.php?zip=/8/items/bluebook/1960s.zip&file=1960s%2F1965-08-9370174-Bogata-Columbia.pdf,-75.9486201,6.001856,#23ed0c,medium,rocket
23/08/1965,"Grand Canyon National Park, Arizona",flying object,aircraft,https://ia801301.us.archive.org/zipview.php?zip=/8/items/bluebook/1960s.zip&file=1960s%2F1965-08-9370182-GrandCanyonNationalPark-Arizona.pdf,-112.292896037024,36.30785475,#23ed0c,medium,rocket
23/08/1965,"Jamestown, New York",flying object,Astro(Venus),https://ia801301.us.archive.org/zipview.php?zip=/8/items/bluebook/1960s.zip&file=1960s%2F1965-08-9370196-Jamestown-NewYork.pdf,-79.2353259,42.0970023,#23ed0c,medium,rocket
23/08/1965,"Wooddale, Illinois",flying object,aircraft,https://ia801301.us.archive.org/zipview.php?zip=/8/items/bluebook/1960s.zip&file=1960s%2F1965-08-9370204-Wooddale-Illinois.pdf,-89.1575904,42.2743527,#23ed0c,medium,rocket
23/08/1965,"Pine City, Minnesota",flying object,Astro(Capella),https://ia801301.us.archive.org/zipview.php?zip=/8/items/bluebook/1960s.zip&file=1960s%2F1965-08-9370225-PineCity-Minnesota.pdf,-92.9685423,45.8260672,#23ed0c,medium,rocket
23/08/1965,"Superior, Wisconsin",flying object,Astro(star/planet),https://ia801301.us.archive.org/zipview.php?zip=/8/items/bluebook/1960s.zip&file=1960s%2F1965-08-9370264-Superior-Wisconsin.pdf,-92.1040796,46.7207737,#23ed0c,medium,rocket
24/08/1965,"Shallop Cove, Newfoundland, Canada",flying object,satellite,https://ia801301.us.archive.org/zipview.php?zip=/8/items/bluebook/1960s.zip&file=1960s%2F1965-08-9370313-ShallopCove-Newfoundland-Canada.pdf,-58.536168,48.4168155,#23ed0c,medium,rocket
24/08/1965,"Fayetteville, Arkansas",flying object,plastic,https://ia601301.us.archive.org/zipview.php?zip=/8/items/bluebook/1960s.zip&file=1960s%2F1965-08-9370302-Fayetteville-Arkansas.pdf,-94.1574328,36.0625843,#23ed0c,medium,rocket
25/08/1965,"Burlington, Massachusetts",flying object,Astro(Capella),https://ia601301.us.archive.org/zipview.php?zip=/8/items/bluebook/1960s.zip&file=1960s%2F1965-08-9370397-Burlington-Mass.pdf,-71.1956111,42.5048167,#23ed0c,medium,rocket
25/08/1965,"Oakwood, Ohio",flying object,satellite,https://ia801301.us.archive.org/zipview.php?zip=/8/items/bluebook/1960s.zip&file=1960s%2F1965-08-9370494-Oakwood-Ohio.pdf,-84.1741059,39.7253369,#23ed0c,medium,rocket
25/08/1965,"Washington Township, Ohio",flying object,satellite,https://ia801301.us.archive.org/zipview.php?zip=/8/items/bluebook/1960s.zip&file=1960s%2F1965-08-9370439-WashingtonTownship-Ohio.pdf,-83.8907241380753,40.4222891,#23ed0c,medium,rocket
26/08/1965,"France",flying object,clouds,https://ia801301.us.archive.org/zipview.php?zip=/8/items/bluebook/1960s.zip&file=1960s%2F1965-08-9370537-%5BILLEGIBLE%5D.pdf,1.8883335,46.603354,#23ed0c,medium,rocket
26/08/1965,"Houston, Texas",flying object,Astro(Jupiter),https://ia601301.us.archive.org/zipview.php?zip=/8/items/bluebook/1960s.zip&file=1960s%2F1965-08-9370728-SSWofHouston-Texas-Rosenburg-Freeport-Neeville-Angleton-.pdf,-95.3676974,29.7589382,#23ed0c,medium,rocket
26/08/1965,"Alexandria, LA",flying object,Astro(Acturus),https://ia801301.us.archive.org/zipview.php?zip=/8/items/bluebook/1960s.zip&file=1960s%2F1965-08-9370777-Alexandria-La.pdf,29.894378,31.199004,#23ed0c,medium,rocket
26/08/1965,"Missile Site, Nebraska",flying object,aircraft,https://ia801301.us.archive.org/zipview.php?zip=/8/items/bluebook/1960s.zip&file=1960s%2F1965-08-9370907-MissileSiteInNebraska.pdf,-96.2991356,41.4882875,#23ed0c,medium,rocket
26/08/1965,"Sioux Army Depot, Nebraska",flying object,aircraft,https://ia601301.us.archive.org/zipview.php?zip=/8/items/bluebook/1960s.zip&file=1960s%2F1965-08-9370929-SiouxArmyDepot-Nebraska.pdf,-103.009695049862,41.2391586,#23ed0c,medium,rocket
26/08/1965,"Nebraska",flying object,aircraft,https://ia601301.us.archive.org/zipview.php?zip=/8/items/bluebook/1960s.zip&file=1960s%2F1965-08-9370948-NebraskaArea.pdf,-99.5873816,41.7370229,#23ed0c,medium,rocket
26/08/1965,"Erie, Pennsylvania",light,Astro(meteor shower),https://ia801301.us.archive.org/zipview.php?zip=/8/items/bluebook/1960s.zip&file=1960s%2F1965-08-9370883-Erie-Pennsylvania.pdf,-80.0852695,42.1294712,#ebe30f,medium,star
27/08/1965,"Tacoma, Washington",flying object,aircraft,https://ia601301.us.archive.org/zipview.php?zip=/8/items/bluebook/1960s.zip&file=1960s%2F1965-08-9370973-Tacoma-Washington.pdf,-122.4205999,47.2420068,#23ed0c,medium,rocket
27/08/1965,"Corpus Christi, Texas",flying object,satellite,https://ia801301.us.archive.org/zipview.php?zip=/8/items/bluebook/1960s.zip&file=1960s%2F1965-08-9370985-CorpusChristi-Texas.pdf,-97.3955744,27.8002542,#23ed0c,medium,rocket
27/08/1965,"Hilo, Hawaii",light,insufficient data,https://ia801301.us.archive.org/zipview.php?zip=/8/items/bluebook/1960s.zip&file=1960s%2F1965-08-9371002-Hilo-Hawaii.pdf,-155.448698303485,19.58955475,#ebe30f,medium,star
29/08/1965,"Tipp City, Ohio",flying object,satellite,https://ia801301.us.archive.org/zipview.php?zip=/8/items/bluebook/1960s.zip&file=1960s%2F1965-08-9371054-TippCity-Ohio.pdf,-84.1721638,39.9583892,#23ed0c,medium,rocket
29/08/1965,"Northeast Harbor, Maine.",light,Astro(Acturus),https://ia601301.us.archive.org/zipview.php?zip=/8/items/bluebook/1960s.zip&file=1960s%2F1965-08-9371082-NortheastHarbor-Maine.pdf,-68.2897381,44.2942468,#ebe30f,medium,star
29/08/1965,"Springfield, Maryland",light,insufficient data,https://ia601301.us.archive.org/zipview.php?zip=/8/items/bluebook/1960s.zip&file=1960s%2F1965-08-9371174-Springfield-Maryland.pdf,-76.7994148,38.9928881,#ebe30f,medium,star
31/08/1965,"Lake Melissa, Minnesota",flying object,satellite,https://ia801301.us.archive.org/zipview.php?zip=/8/items/bluebook/1960s.zip&file=1960s%2F1965-08-9371286-LakeMelissa-Minnesota.pdf,-95.8975613988253,46.7432837,#23ed0c,medium,rocket
31/08/1965,"Turner, Montana",flying object,Astro(Vega),https://ia801301.us.archive.org/zipview.php?zip=/8/items/bluebook/1960s.zip&file=1960s%2F1965-08-9371301-Turner-Montana.pdf,-108.4048141,48.8456288,#23ed0c,medium,rocket
31/08/1965,"Cheyenne, Wyoming",light,insufficient data,https://ia801301.us.archive.org/zipview.php?zip=/8/items/bluebook/1960s.zip&file=1960s%2F1965-08-9371404-Cheyenne-Wyoming.pdf,-104.820246,41.139981,#ebe30f,medium,star
01/09/1965,"Pittsburgh, Pennsylvania",flying object,insufficient data,https://ia801301.us.archive.org/zipview.php?zip=/8/items/bluebook/1960s.zip&file=1960s%2F1965-09-9372600-Pittsburgh-Pennsylvania.pdf,-79.9900861,40.4416941,#23ed0c,medium,rocket
01/09/1965,"Chicago, Illinois",flying object,satellite,https://ia801301.us.archive.org/zipview.php?zip=/8/items/bluebook/1960s.zip&file=1960s%2F1965-09-9372642-Chicago-Illinois.pdf,-87.6244212,41.8755616,#23ed0c,medium,rocket
01/09/1965,"Yellow Springs, Ohio",flying object,satellite,https://ia601301.us.archive.org/zipview.php?zip=/8/items/bluebook/1960s.zip&file=1960s%2F1965-09-9372766-YellowSprings-Ohio.pdf,-83.8925234,39.8045432,#23ed0c,medium,rocket
01/09/1965,"Michigan",flying object,aircraft,https://ia801301.us.archive.org/zipview.php?zip=/8/items/bluebook/1960s.zip&file=1960s%2F1965-09-9372805-Michigan.pdf,-84.6824346,43.6211955,#23ed0c,medium,rocket
01/09/1965,"Bakersfield, California",light,aircraft,https://ia801301.us.archive.org/zipview.php?zip=/8/items/bluebook/1960s.zip&file=1960s%2F1965-09-9372829-Bakersfield-California.pdf,-119.0194639,35.3738712,#ebe30f,medium,star
02/09/1965,Nebraska Missile Site,flying object,Astro(Jupiter),https://ia801301.us.archive.org/zipview.php?zip=/8/items/bluebook/1960s.zip&file=1960s%2F1965-09-9372862-NebraskaMissileSite.pdf,-96.2991356,41.4882875,#23ed0c,medium,rocket
02/09/1965,"Laredo,Texas",flying object,aircraft,https://ia601301.us.archive.org/zipview.php?zip=/8/items/bluebook/1960s.zip&file=1960s%2F1965-09-9372957-Laredo-Texas.pdf,-99.4953764,27.5199841,#23ed0c,medium,rocket
02/09/1965,"Dayton, Ohio",flying object,satellite,https://ia801301.us.archive.org/zipview.php?zip=/8/items/bluebook/1960s.zip&file=1960s%2F1965-09-9373193-Dayton-Ohio.pdf,-84.1916069,39.7589478,#23ed0c,medium,rocket
02/09/1965,"Biloxi, Mississippi",flying object,satellite,https://ia801301.us.archive.org/zipview.php?zip=/8/items/bluebook/1960s.zip&file=1960s%2F1965-09-9373239-Biloxi-Mississippi.pdf,-88.8459433348286,30.374673,#23ed0c,medium,rocket
03/09/1965,"Damon, Texas",flying object,unidentified,https://ia801301.us.archive.org/zipview.php?zip=/8/items/bluebook/1960s.zip&file=1960s%2F1965-09-9372331-Damon-Texas.pdf,-95.7346708,29.290523,#23ed0c,medium,rocket
03/09/1965,"Exeter, New Hampshire",flying object,satellite,https://ia801301.us.archive.org/zipview.php?zip=/8/items/bluebook/1960s.zip&file=1960s%2F1965-09-9373271-Exeter-NewHampshire.pdf,-70.9478343,42.981477,#23ed0c,medium,rocket
03/09/1965,"Portland, Indiana",flying object,Astro(star/planet) ,https://ia801301.us.archive.org/zipview.php?zip=/8/items/bluebook/1960s.zip&file=1960s%2F1965-09-9373897-Portland-Indiana.pdf,-84.9777455,40.4344895,#23ed0c,medium,rocket
03/09/1965,"Columbus, Ohio",flying object,insufficient data,https://ia801301.us.archive.org/zipview.php?zip=/8/items/bluebook/1960s.zip&file=1960s%2F1965-09-9373977-Columbus-Ohio.pdf,-83.0007065,39.9622601,#23ed0c,medium,rocket
03/09/1965,"Waynesville, Ohio",flying object,Astro(meteor),https://ia801301.us.archive.org/zipview.php?zip=/8/items/bluebook/1960s.zip&file=1960s%2F1965-09-9373987-Waynesville-Ohio.pdf,-84.086601,39.5297824,#23ed0c,medium,rocket
03/09/1965,"Moraine, Ohio",light,Astro(Jupiter),https://ia601301.us.archive.org/zipview.php?zip=/8/items/bluebook/1960s.zip&file=1960s%2F1965-09-9373940-Moraine-Ohio.pdf,-84.2193849,39.7061702,#ebe30f,medium,star
04/09/1965,"Ketchikan, Alaska",ball,Astro(meteor),https://ia601301.us.archive.org/zipview.php?zip=/8/items/bluebook/1960s.zip&file=1960s%2F1965-09-8663430-Ketchikan-Alaska-HerringCove-.pdf,-131.6466819,55.3430696,#952dcd,medium,circle
04/09/1965,"Tampa, Florida",flying object,satellite,https://ia801301.us.archive.org/zipview.php?zip=/8/items/bluebook/1960s.zip&file=1960s%2F1965-09-9374032-Tampa-Florida.pdf,-82.458444,27.9477595,#23ed0c,medium,rocket
04/09/1965,"Ozone Park, New York",flying object,satellite,https://ia801301.us.archive.org/zipview.php?zip=/8/items/bluebook/1960s.zip&file=1960s%2F1965-09-9374044-OzonePark-NewYork.pdf,-73.8437461,40.67677,#23ed0c,medium,rocket
04/09/1965,"Cleveland, Ohio",flying object,aircraft,https://ia601301.us.archive.org/zipview.php?zip=/8/items/bluebook/1960s.zip&file=1960s%2F1965-09-9374074-Cleveland-Ohio.pdf,-81.6934446,41.5051613,#23ed0c,medium,rocket
04/09/1965,"Conway, N H",flying object,satellite,https://ia801301.us.archive.org/zipview.php?zip=/8/items/bluebook/1960s.zip&file=1960s%2F1965-09-9374169-Conway-N-H.pdf,-71.120682,43.979475,#23ed0c,medium,rocket
05/09/1965,"Duluth, Minnesota",ball,Astro(meteor),https://ia801301.us.archive.org/zipview.php?zip=/8/items/bluebook/1960s.zip&file=1960s%2F1965-09-8669443-Duluth-Minnesota.pdf,-92.1251218,46.7729322,#952dcd,medium,circle
05/09/1965,"Cheyenne, Wyoming",flying object,insufesient data for evaluation,https://ia601301.us.archive.org/zipview.php?zip=/8/items/bluebook/1960s.zip&file=1960s%2F1965-09-8669984-Cheyenne-Wyoming.pdf,-104.820246,41.139981,#23ed0c,medium,rocket
05/09/1965,"Tacoma, Washington",flying object,satellite,https://ia801301.us.archive.org/zipview.php?zip=/8/items/bluebook/1960s.zip&file=1960s%2F1965-09-8670180-Tacoma-Washington.pdf,-122.4205999,47.2420068,#23ed0c,medium,rocket
05/09/1965,"Corpus Christi, Texas",light,Astro(Venus),https://ia801301.us.archive.org/zipview.php?zip=/8/items/bluebook/1960s.zip&file=1960s%2F1965-09-8664141-CorpusChristi-Texas.pdf,-97.3955744,27.8002542,#ebe30f,medium,star
06/09/1965,"Leon, New York",flying object,aircraft,https://ia801301.us.archive.org/zipview.php?zip=/8/items/bluebook/1960s.zip&file=1960s%2F1965-09-8671793-Leon-NewYork.pdf,-79.016428,42.293116,#23ed0c,medium,rocket
06/09/1965,"Long Beach, New York",flying object,satellite,https://ia801301.us.archive.org/zipview.php?zip=/8/items/bluebook/1960s.zip&file=1960s%2F1965-09-8671902-LongBeach-NewYork.pdf,-73.657861,40.5885116,#23ed0c,medium,rocket
06/09/1965,"Indianapolis, Indiana",flying object,satellite,https://ia801301.us.archive.org/zipview.php?zip=/8/items/bluebook/1960s.zip&file=1960s%2F1965-09-8673399-Indianapolis-Indiana.pdf,-86.1583502,39.7683331,#23ed0c,medium,rocket
06/09/1965,"Colorado Springs, Colorado",flying object,satellite,https://ia801301.us.archive.org/zipview.php?zip=/8/items/bluebook/1960s.zip&file=1960s%2F1965-09-8673712-ColoradoSprings-Colorado.pdf,-104.8253485,38.8339578,#23ed0c,medium,rocket
06/09/1965,"Alice, Texas",flying object,satellite,https://ia801301.us.archive.org/zipview.php?zip=/8/items/bluebook/1960s.zip&file=1960s%2F1965-09-8673865-Alice-Texas.pdf,-98.0697249,27.7522487,#23ed0c,medium,rocket
07/09/1965,"Alexandria, Louisiana",flying object,satellite,https://ia801301.us.archive.org/zipview.php?zip=/8/items/bluebook/1960s.zip&file=1960s%2F1965-09-8674266-Alexandria-Louisiana.pdf,-92.4449087,31.311248,#23ed0c,medium,rocket
07/09/1965,"Menlo Park, California",flying object,Astro(meteor),https://ia601301.us.archive.org/zipview.php?zip=/8/items/bluebook/1960s.zip&file=1960s%2F1965-09-8674804-MenloPark-California.pdf,-122.1821871,37.4538274,#23ed0c,medium,rocket
07/09/1965,"Tempe, Arizona",flying object,aircraft,https://ia801301.us.archive.org/zipview.php?zip=/8/items/bluebook/1960s.zip&file=1960s%2F1965-09-8674931-Tempe-Arizona.pdf,-111.9094474,33.4144139,#23ed0c,medium,rocket
08/09/1965,"Tonawanda, New York",flying object,Astro(meteor),https://ia801301.us.archive.org/zipview.php?zip=/8/items/bluebook/1960s.zip&file=1960s%2F1965-09-8674421-Tonawanda-NewYork.pdf,-78.878383,43.020679,#23ed0c,medium,rocket
09/09/1965,"Los Angeles, California",ball,Astro(meteor),https://ia601301.us.archive.org/zipview.php?zip=/8/items/bluebook/1960s.zip&file=1960s%2F1965-09-8675293-LosAngeles-California.pdf,-118.2427669,34.0536834,#952dcd,medium,circle
09/09/1965,"Walpole, Massachusetts",flying object,Astro(meteor),https://ia801301.us.archive.org/zipview.php?zip=/8/items/bluebook/1960s.zip&file=1960s%2F1965-09-8675219-Walpole-Massachusetts.pdf,-71.2494985,42.1417653,#23ed0c,medium,rocket
11/09/1965,"Sauk Centre, Minnesota",flying object,aircraft,https://ia801301.us.archive.org/zipview.php?zip=/8/items/bluebook/1960s.zip&file=1960s%2F1965-09-8676415-SaukCentre-Minnesota.pdf,-94.9525216,45.737465,#23ed0c,medium,rocket
12/09/1965,"Odessa, Texas",flying object,Astro(meteor),https://ia801301.us.archive.org/zipview.php?zip=/8/items/bluebook/1960s.zip&file=1960s%2F1965-09-8676865-Odessa-Texas.pdf,-102.367687,31.8457149,#23ed0c,medium,rocket
14/09/1965,"Lyons, Kansas",flying object,insufficient data,https://ia801301.us.archive.org/zipview.php?zip=/8/items/bluebook/1960s.zip&file=1960s%2F1965-09-8677117-Lyons-Kansas.pdf,-98.2017268,38.3450104,#23ed0c,medium,rocket
15/09/1965,"Renton, Washington",flying object,insufficient data,https://ia801301.us.archive.org/zipview.php?zip=/8/items/bluebook/1960s.zip&file=1960s%2F1965-09-8677345-Renton-Washington.pdf,-122.2034496,47.4799078,#23ed0c,medium,rocket
16/09/1965,"Rolla, Missouri",flying object,Astro(star/planet) ,https://ia601301.us.archive.org/zipview.php?zip=/8/items/bluebook/1960s.zip&file=1960s%2F1965-09-8677486-Rolla-Missouri.pdf,-91.771792,37.9513575,#23ed0c,medium,rocket
16/09/1965,"Baltimore, Maryland",flying object,aircraft,https://ia801301.us.archive.org/zipview.php?zip=/8/items/bluebook/1960s.zip&file=1960s%2F1965-09-8677590-Baltimore-Maryland.pdf,-76.610759,39.2908816,#23ed0c,medium,rocket
17/09/1965,"Kettering, Ohio",flying object,satellite,https://ia801301.us.archive.org/zipview.php?zip=/8/items/bluebook/1960s.zip&file=1960s%2F1965-09-8677985-Kettering-Ohio.pdf,-84.1688274,39.6895036,#23ed0c,medium,rocket
18/09/1965,"Vashon, Washington",flying object,insufficient data,https://ia801301.us.archive.org/zipview.php?zip=/8/items/bluebook/1960s.zip&file=1960s%2F1965-09-8678496-Vashon-Washington.pdf,-122.473705254669,47.42087595,#23ed0c,medium,rocket
19/09/1965,"Yokohama, Japan",ball,aircraft,https://ia801301.us.archive.org/zipview.php?zip=/8/items/bluebook/1960s.zip&file=1960s%2F1965-09-8678588-Yokohama-Japan.pdf,139.636768,35.444991,#952dcd,medium,circle
20/09/1965,"Winston Salem, North Carolina",flying object,Inconsistancies in report,https://ia801301.us.archive.org/zipview.php?zip=/8/items/bluebook/1960s.zip&file=1960s%2F1965-09-8678813-WinstonSalem-NorthCarolina.pdf,-80.2440518,36.0998131,#23ed0c,medium,rocket
20/09/1965,"Dayton, Ohio Area",flying object,satellite,https://ia601301.us.archive.org/zipview.php?zip=/8/items/bluebook/1960s.zip&file=1960s%2F1965-09-8679178-Dayton-OhioArea.pdf,-84.1916069,39.7589478,#23ed0c,medium,rocket
20/09/1965,"St Petersburg, Florida",flying object,aircraft,https://ia801301.us.archive.org/zipview.php?zip=/8/items/bluebook/1960s.zip&file=1960s%2F1965-09-8679680-St-Petersburg-Florida.pdf,-82.6695085,27.7703796,#23ed0c,medium,rocket
21/09/1965,"Brownfield, Texas",flying object,satellite,https://ia601301.us.archive.org/zipview.php?zip=/8/items/bluebook/1960s.zip&file=1960s%2F1965-09-8679819-Brownfield-Texas.pdf,-102.2743489,33.1812035,#23ed0c,medium,rocket
22/09/1965,"Clover, Minnesota",flying object,balloon,https://ia601301.us.archive.org/zipview.php?zip=/8/items/bluebook/1960s.zip&file=1960s%2F1965-09-8680004-Clover-Minnesota.pdf,-94.8484743,47.7691846,#23ed0c,medium,rocket
22/09/1965,"Landis, North Carolina",flying object,aircraft,https://ia801301.us.archive.org/zipview.php?zip=/8/items/bluebook/1960s.zip&file=1960s%2F1965-09-8680117-Landis-NorthCarolina.pdf,-80.6108998,35.5456947,#23ed0c,medium,rocket
22/09/1965,"Dunkirk, New York",flying object,Astro(star/planet) ,https://ia601301.us.archive.org/zipview.php?zip=/8/items/bluebook/1960s.zip&file=1960s%2F1965-09-8680738-Dunkirk-NewYork.pdf,-79.333932,42.479502,#23ed0c,medium,rocket
22/09/1965,"Silver Springs, Maryland",flying object,aircraft,https://ia801301.us.archive.org/zipview.php?zip=/8/items/bluebook/1960s.zip&file=1960s%2F1965-09-8680801-SilverSprings-Maryland.pdf,-76.910115,38.821017,#23ed0c,medium,rocket
22/09/1965,"Rio Vista, California",light,Astro(Venus),https://ia601301.us.archive.org/zipview.php?zip=/8/items/bluebook/1960s.zip&file=1960s%2F1965-09-8680465-RioVista-California.pdf,-121.6913439,38.1557502,#ebe30f,medium,star
23/09/1965,"New Orleans, Louisiana",flying object,Astro(star/planet) ,https://ia801301.us.archive.org/zipview.php?zip=/8/items/bluebook/1960s.zip&file=1960s%2F1965-09-8681283-NewOrleans-Louisiana.pdf,-90.0701156,29.9499323,#23ed0c,medium,rocket
23/09/1965,"Portland, Oregon",flying object,Astro(meteor),https://ia801301.us.archive.org/zipview.php?zip=/8/items/bluebook/1960s.zip&file=1960s%2F1965-09-8681616-Portland-Oregon.pdf,-122.6741949,45.5202471,#23ed0c,medium,rocket
23/09/1965,"Bellbrook, Ohio",light,aircraft,https://ia601301.us.archive.org/zipview.php?zip=/8/items/bluebook/1960s.zip&file=1960s%2F1965-09-8681123-Bellbrook-Ohio.pdf,-84.0701766,39.6358399,#ebe30f,medium,star
24/09/1965,"Whiteman AFB, Missouri",flying object,satellite,https://ia601301.us.archive.org/zipview.php?zip=/8/items/bluebook/1960s.zip&file=1960s%2F1965-09-8681725-WhitemanAFB-Missouri.pdf,-93.5614331941913,38.7298305,#23ed0c,medium,rocket
24/09/1965,"Washington, DC",flying object,birds,https://ia801301.us.archive.org/zipview.php?zip=/8/items/bluebook/1960s.zip&file=1960s%2F1965-09-8681805-WashingtonD-C.pdf,-77.0365625,38.8950092,#23ed0c,medium,rocket
25/09/1965,"Okinawa",dots,aircraft,https://ia801301.us.archive.org/zipview.php?zip=/8/items/bluebook/1960s.zip&file=1960s%2F1965-09-8682223-Okinawa.pdf,128.0255901,26.5707754,#2c72ce,medium,cross
25/09/1965,"Cogan Station, Pennsylvania",flying object,Astro(Capella),https://ia801301.us.archive.org/zipview.php?zip=/8/items/bluebook/1960s.zip&file=1960s%2F1965-09-8682315-CoganStation-Pennsylvania.pdf,-77.200383,41.398205,#23ed0c,medium,rocket
25/09/1965,"Chisholm, Minnesota",flying object,,https://ia801301.us.archive.org/zipview.php?zip=/8/items/bluebook/1960s.zip&file=1960s%2F1965-09-8682642-Chisholm-Minnesota.pdf,-92.883528,47.489926,#23ed0c,medium,rocket
25/09/1965,"Rodeo, New Mexico",flying object,Unidentified,https://ia801301.us.archive.org/zipview.php?zip=/8/items/bluebook/1960s.zip&file=1960s%2F1965-09-8683093-Rodeo-NewMexico.pdf,-109.0311704,31.8353757,#23ed0c,medium,rocket
26/09/1965,"Middletown, New York",flying object,Astro(Acturus),https://ia801301.us.archive.org/zipview.php?zip=/8/items/bluebook/1960s.zip&file=1960s%2F1965-09-8683415-Middletown-NewYork.pdf,-74.420917744689,41.44634,#23ed0c,medium,rocket
26/09/1965,"Licking County, Ohio",flying object,aircraft,https://ia801301.us.archive.org/zipview.php?zip=/8/items/bluebook/1960s.zip&file=1960s%2F1965-09-8683730-LickingCounty-Ohio.pdf,-82.4627856,40.1318041,#23ed0c,medium,rocket
27/09/1965,"Pennsylvania",ball,Astro(meteor),https://ia801301.us.archive.org/zipview.php?zip=/8/items/bluebook/1960s.zip&file=1960s%2F1965-09-8685073-Pennsylvania.pdf,-77.7278831,40.9699889,#952dcd,medium,circle
27/09/1965,"Goshen, New York",flying object,unreliable report,https://ia801301.us.archive.org/zipview.php?zip=/8/items/bluebook/1960s.zip&file=1960s%2F1965-09-8684985-Goshen-NewYork.pdf,-74.3243191,41.4020382,#23ed0c,medium,rocket
27/09/1965,"Kent, Washington",flying object,Astro(Capella),https://ia801301.us.archive.org/zipview.php?zip=/8/items/bluebook/1960s.zip&file=1960s%2F1965-09-8685188-Kent-Washington.pdf,-122.2270272,47.3826903,#23ed0c,medium,rocket
27/09/1965,"Ellenville, New York",light,aircraft,https://ia801301.us.archive.org/zipview.php?zip=/8/items/bluebook/1960s.zip&file=1960s%2F1965-09-8685335-Ellenville-NewYork.pdf,-74.39571,41.7170379,#ebe30f,medium,star
29/09/1965,"Carson City, Nevada",light,missile,https://ia801301.us.archive.org/zipview.php?zip=/8/items/bluebook/1960s.zip&file=1960s%2F1965-09-8685396-CarsonCity-Nevada.pdf,-119.7669808,39.170557,#ebe30f,medium,star
30/09/1965,"Houston, Texas",flying object,miesinterpretation,https://ia801301.us.archive.org/zipview.php?zip=/8/items/bluebook/1960s.zip&file=1960s%2F1965-09-7476360-Houston-TexasArea-%5BILLEGIBLE%5D-.pdf,-95.3676974,29.7589382,#23ed0c,medium,rocket
30/09/1965,"Rehoboth, Mass",flying object,misinterpretation ,https://ia801301.us.archive.org/zipview.php?zip=/8/items/bluebook/1960s.zip&file=1960s%2F1965-09-9372513-Rehoboth-Mass.pdf,-71.2494938,41.8403786,#23ed0c,medium,rocket
30/09/1965,"Fayetteville, Arkansas",flying object,insufficient data,https://ia601301.us.archive.org/zipview.php?zip=/8/items/bluebook/1960s.zip&file=1960s%2F1965-09-9372575-Fayetteville-Arkansas.pdf,-94.1574328,36.0625843,#23ed0c,medium,rocket
10/1965,"Clarksburg, W. Virginia",flying object,Astro(Jupiter),https://ia801301.us.archive.org/zipview.php?zip=/8/items/bluebook/1960s.zip&file=1960s%2F1965-10-8688727-Clarksburg-W-Virginia.pdf,-80.3445341,39.2806451,#23ed0c,medium,rocket
1/10/1965,"Los Angeles, California",flying object,satellite,https://ia601301.us.archive.org/zipview.php?zip=/8/items/bluebook/1960s.zip&file=1960s%2F1965-10-8689178-LosAngeles-California.pdf,-118.2427669,34.0536834,#23ed0c,medium,rocket
2/10/1965,"Dayton, Ohio",flying object,aircraft,https://ia601301.us.archive.org/zipview.php?zip=/8/items/bluebook/1960s.zip&file=1960s%2F1965-10-8689225-Dayton-Ohio.pdf,-84.1916069,39.7589478,#23ed0c,medium,rocket
2/10/1965,"Dayton, Ohio",flying object,aircraft,https://ia601301.us.archive.org/zipview.php?zip=/8/items/bluebook/1960s.zip&file=1960s%2F1965-10-8689225-Dayton-Ohio.pdf,-84.1916069,39.7589478,#23ed0c,medium,rocket
2/10/1965,"Monroe, New York",flying object,satellite,https://ia801301.us.archive.org/zipview.php?zip=/8/items/bluebook/1960s.zip&file=1960s%2F1965-10-8690732-Monroe-NewYork.pdf,-77.6810141,43.150094,#23ed0c,medium,rocket
2/10/1965,"San Gabriel, California",flying object,Astro(star/planet),https://ia801301.us.archive.org/zipview.php?zip=/8/items/bluebook/1960s.zip&file=1960s%2F1965-10-8690941-SanGabriel-California.pdf,-118.1086041,34.0991325,#23ed0c,medium,rocket
3/10/1965,"Independence, Ky",flying object,Astro(Venus),https://ia801301.us.archive.org/zipview.php?zip=/8/items/bluebook/1960s.zip&file=1960s%2F1965-10-8690978-Independence-Ky.pdf,-84.544109,38.9431183,#23ed0c,medium,rocket
3/10/1965,"Cannon, AFB, New Mexico",flying object,Astro(Acturus),https://ia801301.us.archive.org/zipview.php?zip=/8/items/bluebook/1960s.zip&file=1960s%2F1965-10-8691828-CannonAFB-NewMexico.pdf,-103.3209673,34.382445,#23ed0c,medium,rocket
4/10/1965,"Hanover, Pennsylvania",flying object,Astro(star/planet),https://ia601301.us.archive.org/zipview.php?zip=/8/items/bluebook/1960s.zip&file=1960s%2F1965-10-8692290-Hanover-Pennsylvania.pdf,-76.9842735,39.8063247,#23ed0c,medium,rocket
5/10/1965,"Wayne, Pennsylvania",light,Astro(star/planet),https://ia801301.us.archive.org/zipview.php?zip=/8/items/bluebook/1960s.zip&file=1960s%2F1965-10-8692335-Wayne-Pennsylvania.pdf,-75.3045103,41.6264414,#ebe30f,medium,star
7/10/1965,"Edwards AFB, California",flying object,Astro(star/planet),https://ia801301.us.archive.org/zipview.php?zip=/8/items/bluebook/1960s.zip&file=1960s%2F1965-10-8692927-EdwardsAFB-California.pdf,-117.943953325678,34.900814,#23ed0c,medium,rocket
8/10/1965,"Manhattan, New York",flying object,aircraft,https://ia601301.us.archive.org/zipview.php?zip=/8/items/bluebook/1960s.zip&file=1960s%2F1965-10-8693777-Manhattan-NewYork.pdf,-73.9598295,40.7900869,#23ed0c,medium,rocket
10/10/1965,"Taipei",flying object,insufficient data,https://ia801301.us.archive.org/zipview.php?zip=/8/items/bluebook/1960s.zip&file=1960s%2F1965-10-8693985-Taipei.pdf,121.5636796,25.0375198,#23ed0c,medium,rocket
10/10/1965,"Laredo, Texas",flying object,aircraft,https://ia801301.us.archive.org/zipview.php?zip=/8/items/bluebook/1960s.zip&file=1960s%2F1965-10-8694308-Laredo-Texas.pdf,-99.4953764,27.5199841,#23ed0c,medium,rocket
10/10/1965,"Miamisburg, Ohio",flying object,aircraft,https://ia801301.us.archive.org/zipview.php?zip=/8/items/bluebook/1960s.zip&file=1960s%2F1965-10-8694398-Miamisburg-Ohio.pdf,-84.2866083,39.6428362,#23ed0c,medium,rocket
10/10/1965,"Huntsville, Alabama",light,Astro(meteor),https://ia801301.us.archive.org/zipview.php?zip=/8/items/bluebook/1960s.zip&file=1960s%2F1965-10-8694181-Huntsville-Alabama.pdf,-86.5859011,34.729847,#ebe30f,medium,star
11/10/1965,"Chicago, Illinois",flying object,aircraft,https://ia801301.us.archive.org/zipview.php?zip=/8/items/bluebook/1960s.zip&file=1960s%2F1965-10-8694539-Chicago-Illinois.pdf,-87.6244212,41.8755616,#23ed0c,medium,rocket
12/10/1965,"Montgomery, New York",light,aircraft,https://ia801301.us.archive.org/zipview.php?zip=/8/items/bluebook/1960s.zip&file=1960s%2F1965-10-8694828-Montgomery-NewYork.pdf,-74.4099745,42.8941269,#ebe30f,medium,star
14/10/1965,"New York, New York",flying object,birds,https://ia601301.us.archive.org/zipview.php?zip=/8/items/bluebook/1960s.zip&file=1960s%2F1965-10-8695352-NewYork-NewYork.pdf,-73.9871558,40.7308619,#23ed0c,medium,rocket
14/10/1965,"El Campo, Texas",flying object,aircraft,https://ia801301.us.archive.org/zipview.php?zip=/8/items/bluebook/1960s.zip&file=1960s%2F1965-10-8695982-ElCampo-Texas.pdf,-96.2696867,29.1966405,#23ed0c,medium,rocket
15/10/1965,"Sunnyvale, California",flying object,Astro(meteor),https://ia801301.us.archive.org/zipview.php?zip=/8/items/bluebook/1960s.zip&file=1960s%2F1965-10-8696553-Sunnyvale-California.pdf,-122.0363496,37.3688301,#23ed0c,medium,rocket
17/10/1965,"Dayton, Ohio",flying object,insufficient data,https://ia601301.us.archive.org/zipview.php?zip=/8/items/bluebook/1960s.zip&file=1960s%2F1965-10-8689225-Dayton-Ohio.pdf,-84.1916069,39.7589478,#23ed0c,medium,rocket
17/10/1965,"Dayton, Ohio",flying object,Astro(star/planet),https://ia601301.us.archive.org/zipview.php?zip=/8/items/bluebook/1960s.zip&file=1960s%2F1965-10-8689225-Dayton-Ohio.pdf,-84.1916069,39.7589478,#23ed0c,medium,rocket
18/10/1965,"Litchfield, Nebraska",flying object,balloon,https://ia801301.us.archive.org/zipview.php?zip=/8/items/bluebook/1960s.zip&file=1960s%2F1965-10-8697432-Litchfield-Nebraska.pdf,-99.1556476,41.1575093,#23ed0c,medium,rocket
19/10/1965,"Vero Beach, Florida",flying object,balloon,https://ia801301.us.archive.org/zipview.php?zip=/8/items/bluebook/1960s.zip&file=1960s%2F1965-10-8698065-VeroBeach-Florida.pdf,-80.3975399,27.6387163,#23ed0c,medium,rocket
20/10/1965,"Eastern United States",flying object,balloon,https://ia801301.us.archive.org/zipview.php?zip=/8/items/bluebook/1960s.zip&file=1960s%2F1965-10-8698212-SNOWHILL-MARYLAND.pdf,-82.805994,37.5170432,#23ed0c,medium,rocket
20/10/1965,"Tillamook, Oregon",flying object,Astro(meteor),https://ia801301.us.archive.org/zipview.php?zip=/8/items/bluebook/1960s.zip&file=1960s%2F1965-10-8698484-Tillamook-Oregon.pdf,-123.844429,45.455921,#23ed0c,medium,rocket
20/10/1965,"Baker, Oregon",flying object,Astro(Capella),https://ia801301.us.archive.org/zipview.php?zip=/8/items/bluebook/1960s.zip&file=1960s%2F1965-10-8698281-Baker-Oregon.pdf,-117.6204818,44.7259637,#23ed0c,medium,rocket
21/10/1965,"Alamosa, Colorado",flying object,Astro(meteor),https://ia801301.us.archive.org/zipview.php?zip=/8/items/bluebook/1960s.zip&file=1960s%2F1965-10-8698558-Alamosa-Colorado.pdf,-105.8696009,37.469877,#23ed0c,medium,rocket
21/10/1965,"St George, Minnesota",flying object,insufficient data,https://ia801301.us.archive.org/zipview.php?zip=/8/items/bluebook/1960s.zip&file=1960s%2F1965-10-8698684-St-George-Minnesota.pdf,-94.532478,44.3894068,#23ed0c,medium,rocket
23/10/1965,"Rolling Meadows, Illinois",flying object,reflection,https://ia801301.us.archive.org/zipview.php?zip=/8/items/bluebook/1960s.zip&file=1960s%2F1965-10-8674033-RollingMeadows-Illinois.pdf,-88.0131275,42.0841936,#23ed0c,medium,rocket
23/10/1965,"Alexander City, Alabama",flying object,balloon,https://archive.org/download/bluebook/1960s.zip/1960s%2F1965-10-8698684-St-George-Minnesota.pdf,-85.9538532,32.944012,#23ed0c,medium,rocket
23/10/1965,"Bayshore, New York",light,aircraft,https://ia801301.us.archive.org/zipview.php?zip=/8/items/bluebook/1960s.zip&file=1960s%2F1965-10-8674678-Bayshore-NewYork.pdf,-73.8165505,40.8459592,#ebe30f,medium,star
25/10/1965,"Dayton, Ohio",flying object,Astro(Venus),https://ia601301.us.archive.org/zipview.php?zip=/8/items/bluebook/1960s.zip&file=1960s%2F1965-10-8689225-Dayton-Ohio.pdf,-84.1916069,39.7589478,#23ed0c,medium,rocket
25/10/1965,"Dayton, Ohio",flying object,Astro(Venus),https://ia601301.us.archive.org/zipview.php?zip=/8/items/bluebook/1960s.zip&file=1960s%2F1965-10-8689225-Dayton-Ohio.pdf,-84.1916069,39.7589478,#23ed0c,medium,rocket
25/10/1965,"Wheeling, W Va",flying object,unreliable report,https://ia801301.us.archive.org/zipview.php?zip=/8/items/bluebook/1960s.zip&file=1960s%2F1965-10-8699169-Whealing-W-Va.pdf,-80.7209149,40.0639616,#23ed0c,medium,rocket
25/10/1965,"Luke AFB, Arizona",flying object,Astro(Jupiter),https://ia801301.us.archive.org/zipview.php?zip=/8/items/bluebook/1960s.zip&file=1960s%2F1965-10-8699234-LukeAFB-Arizona.pdf,-112.3776694,33.536038,#23ed0c,medium,rocket
27/10/1965,"Newton Center, Massachusetts",flying object,Astro(Venus),https://ia801301.us.archive.org/zipview.php?zip=/8/items/bluebook/1960s.zip&file=1960s%2F1965-10-8699362-NewtonCenter-Mass.pdf,-71.1994989,42.3306528,#23ed0c,medium,rocket
27/10/1965,"Newton Center, Massachusetts",flying object,balloon,https://ia801301.us.archive.org/zipview.php?zip=/8/items/bluebook/1960s.zip&file=1960s%2F1965-10-8699362-NewtonCenter-Mass.pdf,-71.1994989,42.3306528,#23ed0c,medium,rocket
28/10/1965,"Rolling Meadows, Illinois",flying object,,https://ia801301.us.archive.org/zipview.php?zip=/8/items/bluebook/1960s.zip&file=1960s%2F1965-10-8674033-RollingMeadows-Illinois.pdf,-88.0131275,42.0841936,#23ed0c,medium,rocket
28/10/1965,"Rolling Meadows, Illinois",flying object,,https://ia801301.us.archive.org/zipview.php?zip=/8/items/bluebook/1960s.zip&file=1960s%2F1965-10-8674033-RollingMeadows-Illinois.pdf,-88.0131275,42.0841936,#23ed0c,medium,rocket
28/10/1965,"Miamisburg, Ohio",flying object,Astro(Venus),https://ia801301.us.archive.org/zipview.php?zip=/8/items/bluebook/1960s.zip&file=1960s%2F1965-10-8694398-Miamisburg-Ohio.pdf,-84.2866083,39.6428362,#23ed0c,medium,rocket
29/10/1965,"Florissant, Missouri",flying object,aircraft,https://ia601301.us.archive.org/zipview.php?zip=/8/items/bluebook/1960s.zip&file=1960s%2F1965-10-8674873-Florissant-Missouri.pdf,-90.322614,38.789217,#23ed0c,medium,rocket
30/10/1965,"Overton, Nevada",flying object,balloon,https://ia801301.us.archive.org/zipview.php?zip=/8/items/bluebook/1960s.zip&file=1960s%2F1965-10-8675227-Overton-Nevada.pdf,-114.4429886,36.5407344,#23ed0c,medium,rocket
30/10/1965,"Rome, New York",light,aircraft,https://ia601301.us.archive.org/zipview.php?zip=/8/items/bluebook/1960s.zip&file=1960s%2F1965-10-8675094-Rome-NewYork.pdf,-75.4557304,43.2128473,#ebe30f,medium,star
31/10/1965,"Amityville, New York",flying object,Astro(Venus),https://ia601301.us.archive.org/zipview.php?zip=/8/items/bluebook/1960s.zip&file=1960s%2F1965-10-8675364-%5BILLEGIBLE%5D.pdf,-73.4148990072436,40.672268,#23ed0c,medium,rocket
31/10/1965,"Efland, North Carolina",flying object,Astro(Capella),https://ia601301.us.archive.org/zipview.php?zip=/8/items/bluebook/1960s.zip&file=1960s%2F1965-10-8675652-Efland-NorthCarolina.pdf,-79.1691812,36.0812507,#23ed0c,medium,rocket
11/1965,"O'Hare International Airport, Chicago",,,https://ia601301.us.archive.org/zipview.php?zip=/8/items/bluebook/1960s.zip&file=1960s%2F1965-11-8677133-Rivergrove-Illinois.pdf,-87.9093214054785,41.9779849,#2c72ce,medium,cross
3/11/1965,"Chicago, Illinois",flying object,Astro(Capella),https://ia801301.us.archive.org/zipview.php?zip=/8/items/bluebook/1960s.zip&file=1960s%2F1965-11-8676496-Chicago-Illinois.pdf,-87.6244212,41.8755616,#23ed0c,medium,rocket
4/11/1965,"Chicago, Illinois",flying object,Astro(Venus),https://ia801301.us.archive.org/zipview.php?zip=/8/items/bluebook/1960s.zip&file=1960s%2F1965-11-8676496-Chicago-Illinois.pdf,-87.6244212,41.8755616,#23ed0c,medium,rocket
4/11/1965,"Aberdeen, Maryland",flying object,metamorphic rock,https://ia801301.us.archive.org/zipview.php?zip=/8/items/bluebook/1960s.zip&file=1960s%2F1965-11-8680184-Aberdeen-Maryland.pdf,-76.1641197,39.5095556,#23ed0c,medium,rocket
5/11/1965,"Oxford, Ohio",flying object,aircraft,https://ia601301.us.archive.org/zipview.php?zip=/8/items/bluebook/1960s.zip&file=1960s%2F1965-11-8678661-Oxford-Ohio.pdf,-84.7420519,39.5103048,#23ed0c,medium,rocket
5/11/1965,"Bellingham, Massachusetts",light,,https://ia801301.us.archive.org/zipview.php?zip=/8/items/bluebook/1960s.zip&file=1960s%2F1965-11-8678752-Bellingham-Mass.pdf,-71.4746436,42.0869493,#ebe30f,medium,star
6/11/1965,"Park Meadows, Pennsylvania",flying object,,https://ia601301.us.archive.org/zipview.php?zip=/8/items/bluebook/1960s.zip&file=1960s%2F1965-11-8678799-ParkMeadows-Pennsylvania.pdf,-75.1562848,40.1751089,#23ed0c,medium,rocket
11/1965,"New York, New York",flying object,,https://ia601301.us.archive.org/zipview.php?zip=/8/items/bluebook/1960s.zip&file=1960s%2F1965-11-8679228-NewYork-NewYork.pdf,-73.9871558,40.7308619,#23ed0c,medium,rocket
10/11/1965,"Chicago, Illinois",flying object,aircraft,https://ia801301.us.archive.org/zipview.php?zip=/8/items/bluebook/1960s.zip&file=1960s%2F1965-11-8676496-Chicago-Illinois.pdf,-87.6244212,41.8755616,#23ed0c,medium,rocket
11/11/1965,"Cleveland, Ohio",flying object,insufficient data,https://ia801301.us.archive.org/zipview.php?zip=/8/items/bluebook/1960s.zip&file=1960s%2F1965-11-8679431-Cleveland-Ohio.pdf,-81.6934446,41.5051613,#23ed0c,medium,rocket
11/11/1965,"Anderson Creek, Oregon",flying object,,https://ia801301.us.archive.org/zipview.php?zip=/8/items/bluebook/1960s.zip&file=1960s%2F1965-11-8679834-AndersonCreek-Oregon.pdf,-118.2851258,44.2303822,#23ed0c,medium,rocket
12.11.1965,"Chicago, Illinois",flying object,aircraft,https://ia801301.us.archive.org/zipview.php?zip=/8/items/bluebook/1960s.zip&file=1960s%2F1965-11-8676496-Chicago-Illinois.pdf,-87.6244212,41.8755616,#23ed0c,medium,rocket
13/11/1965,"Barview, Oregon",flying object,,https://ia601301.us.archive.org/zipview.php?zip=/8/items/bluebook/1960s.zip&file=1960s%2F1965-11-8679686-Barview-Oregon.pdf,-124.3131718,43.3542779,#23ed0c,medium,rocket
13/11/1965,"Salem, Massachusetts",flying object,Astro(Jupiter),https://ia801301.us.archive.org/zipview.php?zip=/8/items/bluebook/1960s.zip&file=1960s%2F1965-11-8683795-Cincinatti-Ohio.pdf,-70.8967226,42.5195292,#23ed0c,medium,rocket
13/11/1965,"Salem, Massachusetts",flying object,Astro(Jupiter),https://ia801301.us.archive.org/zipview.php?zip=/8/items/bluebook/1960s.zip&file=1960s%2F1965-11-8683795-Cincinatti-Ohio.pdf,-70.8967226,42.5195292,#23ed0c,medium,rocket
15/11/1965,"Dunedin Causeway, Florida",flying object,balloon,https://ia601301.us.archive.org/zipview.php?zip=/8/items/bluebook/1960s.zip&file=1960s%2F1965-11-8680769-DunedinCauseway-Florida.pdf,-82.8050666,28.0548542,#23ed0c,medium,rocket
15/11/1965,"Clinton, Indiana",flying object,insufficient data,https://ia801301.us.archive.org/zipview.php?zip=/8/items/bluebook/1960s.zip&file=1960s%2F1965-11-8680395-Clinton-Indiana.pdf,-86.4692735,40.2992769,#23ed0c,medium,rocket
15/11/1965,"Middletown, New York",light,,https://ia801301.us.archive.org/zipview.php?zip=/8/items/bluebook/1960s.zip&file=1960s%2F1965-11-8680571-Middletown-NewYork.pdf,-74.420917744689,41.44634,#ebe30f,medium,star
15/11/1965,"Columbus, Ohio",light,,https://ia801301.us.archive.org/zipview.php?zip=/8/items/bluebook/1960s.zip&file=1960s%2F1965-11-8680929-Columbus-Ohio.pdf,-83.0007065,39.9622601,#ebe30f,medium,star
16/11/1965,"Keflavik International Airport, Iceland",flying object,Astro(meteor),https://ia801301.us.archive.org/zipview.php?zip=/8/items/bluebook/1960s.zip&file=1960s%2F1965-11-8680442-AtlanticOcean-VicinityOfIceland-.pdf,-22.626490311921,63.98486065,#23ed0c,medium,rocket
16/11/1965,"Clinton, Indiana",flying object,,https://ia801301.us.archive.org/zipview.php?zip=/8/items/bluebook/1960s.zip&file=1960s%2F1965-11-8680395-Clinton-Indiana.pdf,-86.4692735,40.2992769,#23ed0c,medium,rocket
16/11/1965,"Brooksville, Florida",flying object,,https://ia601301.us.archive.org/zipview.php?zip=/8/items/bluebook/1960s.zip&file=1960s%2F1965-11-8680698-Brooksville-Florida.pdf,-82.3924737,28.5559352,#23ed0c,medium,rocket
16/11/1965,"Neustadt, German",flying object,,https://ia801301.us.archive.org/zipview.php?zip=/8/items/bluebook/1960s.zip&file=1960s%2F1965-11-8681075-Neustadt-Germany.pdf,9.99264560794635,53.5572837,#23ed0c,medium,rocket
17/11/1965,"Dearborn, Missouri",flame,insufficient data,https://ia801301.us.archive.org/zipview.php?zip=/8/items/bluebook/1960s.zip&file=1960s%2F1965-11-8681385-Dearborn-Missouri.pdf,-94.7699608,39.5219411,#2c72ce,medium,cross
18/11/1965,"Lutz, Florida",flying object,Astro(meteor),https://ia601301.us.archive.org/zipview.php?zip=/8/items/bluebook/1960s.zip&file=1960s%2F1965-11-8681191-Lutz-Florida.pdf,-82.4591842407094,28.1300994,#23ed0c,medium,rocket
18/11/1965,"Bedford, Virginia",flying object,Astro(meteor),https://ia801301.us.archive.org/zipview.php?zip=/8/items/bluebook/1960s.zip&file=1960s%2F1965-11-8681691-Bedford-Virginia.pdf,-79.5399003,37.3123905,#23ed0c,medium,rocket
18/11/1965,"Buffalo, New York",flying object,,https://ia801301.us.archive.org/zipview.php?zip=/8/items/bluebook/1960s.zip&file=1960s%2F1965-11-8681861-Buffalo-NewYork.pdf,-78.8783922,42.8867166,#23ed0c,medium,rocket
18/11/1965,"Terrace Park, Ohio",light,,https://ia601301.us.archive.org/zipview.php?zip=/8/items/bluebook/1960s.zip&file=1960s%2F1965-11-8682167-TerracePark-Ohio.pdf,-84.3071602,39.1592269,#ebe30f,medium,star
18/11/1965,"Terrace Park, Ohio",light,,https://ia601301.us.archive.org/zipview.php?zip=/8/items/bluebook/1960s.zip&file=1960s%2F1965-11-8682167-TerracePark-Ohio.pdf,-84.3071602,39.1592269,#ebe30f,medium,star
19/11/1965,"Ellerbe, N C",light,Astro(meteor),https://ia601301.us.archive.org/zipview.php?zip=/8/items/bluebook/1960s.zip&file=1960s%2F1965-11-8681431-NorthOfEllerbe-N-C.pdf,-79.7614395,35.0712608,#ebe30f,medium,star
19/11/1965,"Indianapolis, Indiana",light,insufficient data,https://ia601301.us.archive.org/zipview.php?zip=/8/items/bluebook/1960s.zip&file=1960s%2F1965-11-8682759-Indianapolis-Indiana.pdf,-86.1583502,39.7683331,#ebe30f,medium,star
21/11/1965,"Jim Hogg County, Texas",light,insufficient data,https://ia601301.us.archive.org/zipview.php?zip=/8/items/bluebook/1960s.zip&file=1960s%2F1965-11-8683104-JimHoggCounty-Texas.pdf,-98.7047316,27.0065425,#ebe30f,medium,star
23/11/1965,"Garibaldi, Oregon",light,insufficient data,https://ia601301.us.archive.org/zipview.php?zip=/8/items/bluebook/1960s.zip&file=1960s%2F1965-11-8683028-Garibaldi-Oregon.pdf,-123.911203,45.559817,#ebe30f,medium,star
25/11/1965,"Jonesboro, Arkansas",flying object,insufficient data,https://ia801301.us.archive.org/zipview.php?zip=/8/items/bluebook/1960s.zip&file=1960s%2F1965-11-8683438-Jonesboro-Arkansas.pdf,-90.7034522,35.8428646,#23ed0c,medium,rocket
25/11/1965,"Phoenix, Arizona",flying object,,https://ia801301.us.archive.org/zipview.php?zip=/8/items/bluebook/1960s.zip&file=1960s%2F1965-11-8683511-Phoenix-Arizona.pdf,-112.0773456,33.4485866,#23ed0c,medium,rocket
25/11/1965,"Dallas, Texas",flying object,balloon,https://ia601301.us.archive.org/zipview.php?zip=/8/items/bluebook/1960s.zip&file=1960s%2F1965-11-8683238-Dallas-Texas.pdf,-96.7968559,32.7762719,#23ed0c,medium,rocket
29/11/1965,"Tok Junction, Alaska",ball,,https://ia801301.us.archive.org/zipview.php?zip=/8/items/bluebook/1960s.zip&file=1960s%2F1965-11-8683343-Tok-Junction-Alaska.pdf,-142.9877729,63.3359454,#952dcd,medium,circle
1/12/1965,"Oak Park, Illinois",flying object,,https://ia601301.us.archive.org/zipview.php?zip=/8/items/bluebook/1960s.zip&file=1960s%2F1965-11-8683682-OakPark-Illinois.pdf,-87.7887615,41.8878145,#23ed0c,medium,rocket
1/12/1965,"Caracas, Venezuela",flying object,satellite,https://ia601301.us.archive.org/zipview.php?zip=/8/items/bluebook/1960s.zip&file=1960s%2F1965-12-8691946-Caracas-Venezuela.pdf,-66.9146017,10.506098,#23ed0c,medium,rocket
1/12/1965,"Norwalk, Ohio",light,Astro(Venus),https://ia801301.us.archive.org/zipview.php?zip=/8/items/bluebook/1960s.zip&file=1960s%2F1965-12-8692063-Norwalk-Ohio.pdf,-82.6157331,41.2425531,#ebe30f,medium,star
12/1965,"La Crosse, Wisconsin",,insufficient data,https://ia801301.us.archive.org/zipview.php?zip=/8/items/bluebook/1960s.zip&file=1960s%2F1965-12-8691847-LaCrosse-Wisconsin.pdf,-91.2395429,43.8014053,#2c72ce,medium,cross
2/12/1965,"Santiago, Chile",flying object,Astro(meteor),https://ia801301.us.archive.org/zipview.php?zip=/8/items/bluebook/1960s.zip&file=1960s%2F1965-12-8692399-Santiago-Chile.pdf,-70.6504451,-33.4377968,#23ed0c,medium,rocket
2/12/1965,"Santa Susana, Californi",flying object,Astro(Venus),https://ia601301.us.archive.org/zipview.php?zip=/8/items/bluebook/1960s.zip&file=1960s%2F1965-12-8692450-SantaSusana-California.pdf,-118.7090222,34.2716255,#23ed0c,medium,rocket
4/12/1965,"Aberdeen, South Dakota",flying object,Astro(star/planet),https://ia801301.us.archive.org/zipview.php?zip=/8/items/bluebook/1960s.zip&file=1960s%2F1965-12-8692497-Aberdeen-SouthDakota.pdf,-98.487813,45.4649805,#23ed0c,medium,rocket
6/12/1965,"Cutoff, Louisiana",flying object,balloon,https://ia801301.us.archive.org/zipview.php?zip=/8/items/bluebook/1960s.zip&file=1960s%2F1965-12-8692667-Cutoff-Louisiana.pdf,-89.9778468,29.9179823,#23ed0c,medium,rocket
7/12/1965,"Evanston Illinois",flying object,aircraft,https://ia601301.us.archive.org/zipview.php?zip=/8/items/bluebook/1960s.zip&file=1960s%2F1965-12-8692785-Evanston-Illinois.pdf,-87.6930459,42.0447388,#23ed0c,medium,rocket
7/12/1965,"Lanham, Maryland",flying object,balloon,https://ia801301.us.archive.org/zipview.php?zip=/8/items/bluebook/1960s.zip&file=1960s%2F1965-12-8692902-Lanham-Maryland.pdf,-76.8619166,38.9670551,#23ed0c,medium,rocket
7/12/1965,"Oak Grove, Oregon",flying object,Astro(Venus),https://ia801301.us.archive.org/zipview.php?zip=/8/items/bluebook/1960s.zip&file=1960s%2F1965-12-8693056-OakGrove-Oregon.pdf,-122.641562235146,45.4162385,#23ed0c,medium,rocket
7/12/1965,"Rockaway, Oregon",flying object,insufficient data,https://ia801301.us.archive.org/zipview.php?zip=/8/items/bluebook/1960s.zip&file=1960s%2F1965-12-8693113-Rockaway-Oregon.pdf,-123.943147,45.613598,#23ed0c,medium,rocket
8/12/1965,"Tangent, Oregon",flying object,insufficient data,https://ia601301.us.archive.org/zipview.php?zip=/8/items/bluebook/1960s.zip&file=1960s%2F1965-12-8693190-Tangent-Oregon.pdf,-123.1092912,44.5440387,#23ed0c,medium,rocket
9/12/1965,"Waterford, Pa",flying object,Astro(Moon),https://ia801301.us.archive.org/zipview.php?zip=/8/items/bluebook/1960s.zip&file=1960s%2F1965-12-8693234-Waterford-Pa.pdf,-79.9842447,41.9424779,#23ed0c,medium,rocket
11/12/1965,"Albany, Oregon",flying object,satellite,https://ia801301.us.archive.org/zipview.php?zip=/8/items/bluebook/1960s.zip&file=1960s%2F1965-12-8693845-Albany-Oregon.pdf,-123.1059324,44.6365071,#23ed0c,medium,rocket
11/12/1965,"Hawaiian Islands",flying object,aircraft,https://ia801301.us.archive.org/zipview.php?zip=/8/items/bluebook/1960s.zip&file=1960s%2F1965-12-8693909-HawaiianIslands.pdf,-155.448698303485,19.58955475,#23ed0c,medium,rocket
11/12/1965,"Vandalia, Ohio",light,aircraft,https://ia801301.us.archive.org/zipview.php?zip=/8/items/bluebook/1960s.zip&file=1960s%2F1965-12-8693781-Vandalia-Ohio.pdf,-84.1988308,39.8906122,#ebe30f,medium,star
12/12/1965,"Lansing, Michigan",flying object,aircraft,https://ia801301.us.archive.org/zipview.php?zip=/8/items/bluebook/1960s.zip&file=1960s%2F1965-12-8694050-Lansing-Michigan.pdf,-84.5553805,42.7337712,#23ed0c,medium,rocket
15/12/1965,"Luke AFB, Arizona",flying object,satellite,https://ia601301.us.archive.org/zipview.php?zip=/8/items/bluebook/1960s.zip&file=1960s%2F1965-12-8694408-LukeAFB-Arizona.pdf,-112.3776694,33.536038,#23ed0c,medium,rocket
15/12/1965,"Dayton, Ohio",flying object,Astro(star/planet),https://ia801301.us.archive.org/zipview.php?zip=/8/items/bluebook/1960s.zip&file=1960s%2F1965-12-8694288-Dayton-Ohio.pdf,-84.1916069,39.7589478,#23ed0c,medium,rocket
15/12/1965,"Oregon",light,missile,https://ia601301.us.archive.org/zipview.php?zip=/8/items/bluebook/1960s.zip&file=1960s%2F1965-12-8694319-Oregon-Area.pdf,-120.737257,43.9792797,#ebe30f,medium,star
17/12/1965,"Whittier, California",flying object,insufficient data,https://ia801301.us.archive.org/zipview.php?zip=/8/items/bluebook/1960s.zip&file=1960s%2F1965-12-8694781-Whittier-California.pdf,-118.0336975,33.9748932,#23ed0c,medium,rocket
17/12/1965,"Sabina, Ohio",light,aircraft,https://ia801301.us.archive.org/zipview.php?zip=/8/items/bluebook/1960s.zip&file=1960s%2F1965-12-8694650-Sabina-Ohio.pdf,-83.6368659,39.4886732,#ebe30f,medium,star
20/12/1965,"Lacomb, Oregon",flying object,aircraft,https://ia801301.us.archive.org/zipview.php?zip=/8/items/bluebook/1960s.zip&file=1960s%2F1965-12-8694875-Lacomb-Oregon.pdf,-122.7434204,44.5851228,#23ed0c,medium,rocket
27/12/1965,"Houma, Louisiana",flying object,Astro(Venus),https://ia801301.us.archive.org/zipview.php?zip=/8/items/bluebook/1960s.zip&file=1960s%2F1965-12-8695012-Houma-Louisiana.pdf,-90.7195348,29.5957696,#23ed0c,medium,rocket
28/12/1965,"Newark, Harbor Hills, Ohio Area",flying object,Astro(Vega),https://ia801301.us.archive.org/zipview.php?zip=/8/items/bluebook/1960s.zip&file=1960s%2F1965-12-8695223-Newark-HarborHills-OhioArea.pdf,-82.434938,39.933118,#23ed0c,medium,rocket
28/12/1965,"Beavercreek, Ohio",light,Astro(Venus),https://ia801301.us.archive.org/zipview.php?zip=/8/items/bluebook/1960s.zip&file=1960s%2F1965-12-8695151-Beavercreek-Ohio.pdf,-84.0632685,39.7092262,#ebe30f,medium,star
10-14/04/1965,"Misawa AB, Japan",flying object,unidentified,https://ia601301.us.archive.org/zipview.php?zip=/8/items/bluebook/1960s.zip&file=1960s%2F1965-04-9071719-MisawaAB-Japan.pdf,141.8106917,42.6627408,#23ed0c,medium,rocket
12-13/03/1965,"Brooklyn, New York",light,satellite,https://ia801301.us.archive.org/zipview.php?zip=/8/items/bluebook/1960s.zip&file=1960s%2F1965-03-8724631-Brooklyn-NewYork.pdf,-73.9495823,40.6501038,#ebe30f,medium,star
13-17/08/1965,"Urbana, Ohio",light,psychological,https://ia801301.us.archive.org/zipview.php?zip=/8/items/bluebook/1960s.zip&file=1960s%2F1965-08-7475693-Urbana-Ohio.pdf,-83.7524298,40.1083912,#ebe30f,medium,star
21:10 27.10.2018,"Cloverdale, Ohio",flying object,Astro(Venus),https://ia601301.us.archive.org/zipview.php?zip=/8/items/bluebook/1960s.zip&file=1960s%2F1965-10-8673973-Cloverdale-Ohio.pdf,-83.5738203,41.3414412,#23ed0c,medium,rocket
"22, 24, 25, 26/04/1965","Madison,Tennessee",flying object,conventional objects,https://ia601301.us.archive.org/zipview.php?zip=/8/items/bluebook/1960s.zip&file=1960s%2F1965-04-9072132-Madison-Tennessee.pdf,-88.852119,35.6055887,#23ed0c,medium,rocket
"25/01/1965, 27/01/1965, 29/01/1965, 05/02/1965","Moneta,Virginia",flying object,Astro(star/planet),https://ia601301.us.archive.org/zipview.php?zip=/8/items/bluebook/1960s.zip&file=1960s%2F1965-01-8723045-Moneta-Virginia.pdf,-79.6172536,37.1812537,#23ed0c,medium,rocket
25-29/08/1965,"Sequoia National Park, California",flying object,aircraft,https://ia601301.us.archive.org/zipview.php?zip=/8/items/bluebook/1960s.zip&file=1960s%2F1965-08-9370520-SequoiaNationalPark-California.pdf,-118.559919384386,36.49584065,#23ed0c,medium,rocket
5-7/05/1965,"Philippines",flying object,insufficient data,https://ia601301.us.archive.org/zipview.php?zip=/8/items/bluebook/1960s.zip&file=1960s%2F1965-05-9073552-Philippines.pdf,122.7312101,12.7503486,#23ed0c,medium,rocket
