date,place,seen,real,link,lon,lat,marker-color,marker-size,marker-symbol
2/10/1965,"Houston, Pennsylvania",flying object,debris in wind,https://ia601301.us.archive.org/zipview.php?zip=/8/items/bluebook/1960s.zip&file=1960s%2F1965-10-8690593-Houston-Pennsylvania.pdf,-80.2114472,40.2464593,#c713e7,medium,cross
01/01/1965,"Norfolk, Virginia",flying object,Astro(meteor shower),https://ia801301.us.archive.org/zipview.php?zip=/8/items/bluebook/1960s.zip&file=1960s%2F1965-01-8722344-Norfolk-Virginia.pdf,-76.2481624,36.8889933,#122c87,medium,lighthouse
02/01/1965,"Village Hall, Rockdale, Illinois",light,insufficient data,https://ia601301.us.archive.org/zipview.php?zip=/8/items/bluebook/1960s.zip&file=1960s%2F1965-01-8722353-%5BILLEGIBLE%5D.pdf,-88.1145036,41.506142,#f90105,medium,triangle-stroked
04/01/1965,"Morton, Illinois",flying object,Astro(Mars),https://ia801301.us.archive.org/zipview.php?zip=/8/items/bluebook/1960s.zip&file=1960s%2F1965-01-8722377-Morton-Illinois.pdf,-89.459323,40.6127349,#122c87,medium,lighthouse
04/01/1965,"Bethel, Vermont",,tracer bullets,https://ia801301.us.archive.org/zipview.php?zip=/8/items/bluebook/1960s.zip&file=1960s%2F1965-01-8722383-Bethel-Vermont.pdf,-72.634048,43.833536,#c713e7,medium,cross
05/01/1965,"Wallops Island,Virginia",light,insufficient data,https://ia601301.us.archive.org/zipview.php?zip=/8/items/bluebook/1960s.zip&file=1960s%2F1965-01-8722450-WallopsIsland-Virginia.pdf,-75.4561665705755,37.88387115,#f90105,medium,triangle-stroked
05/01/1965,"Lynchburg, Virginia",light,insufficient data,https://ia801301.us.archive.org/zipview.php?zip=/8/items/bluebook/1960s.zip&file=1960s%2F1965-01-8722474-Lynchburg-Virginia.pdf,-79.1844923945909,37.40088,#f90105,medium,triangle-stroked
08/01/1965,"Georgetown, South Carolina",flying object,aircraft,https://ia601301.us.archive.org/zipview.php?zip=/8/items/bluebook/1960s.zip&file=1960s%2F1965-01-8722482-Georgetown-SouthCarolina.pdf,-79.2944965,33.376834,#319f1d,medium,airport
10/01/1965,"Silver Springs, Maryland",flying object,Astro(meteor),https://ia801301.us.archive.org/zipview.php?zip=/8/items/bluebook/1960s.zip&file=1960s%2F1965-01-8722502-SilverSprings-Maryland.pdf,-76.910115,38.821017,#122c87,medium,lighthouse
10/01/1965,"South Boston, Virginia",flying object,Astro(meteor),https://ia801301.us.archive.org/zipview.php?zip=/8/items/bluebook/1960s.zip&file=1960s%2F1965-01-8722514-SouthBoston-Virginia.pdf,-78.9013987,36.6987494,#122c87,medium,lighthouse
10/01/1965,"Pleasant Hill, Ohio",flying object,Astro(Jupiter),https://ia601301.us.archive.org/zipview.php?zip=/8/items/bluebook/1960s.zip&file=1960s%2F1965-01-8722521-PleasantHill-Ohio.pdf,-82.5079357,39.6714539,#122c87,medium,lighthouse
13/01/1965,New Zealand ,landing,contrails,https://ia801301.us.archive.org/zipview.php?zip=/8/items/bluebook/1960s.zip&file=1960s%2F1965-01-8722540-41S167E-BetweenNewZealand-Australia-.pdf,172.8344077,-41.5000831,#c713e7,medium,cross
14/01/1965,"Mammoth, Arizona",light,unreliable report,https://ia801301.us.archive.org/zipview.php?zip=/8/items/bluebook/1960s.zip&file=1960s%2F1965-01-8722561-Mammoth-Arizona.pdf,-110.6406547,32.722568,#c713e7,medium,cross
14/01/1965,"Thaxton,Virginia",witness,aircraft,https://ia601301.us.archive.org/zipview.php?zip=/8/items/bluebook/1960s.zip&file=1960s%2F1965-01-8722576-Thaxton-Virginia.pdf,-79.6164233,37.3529172,#319f1d,medium,airport
18/01/1965,"Buchanan,Virginia",flying object,unreliable report,https://ia801301.us.archive.org/zipview.php?zip=/8/items/bluebook/1960s.zip&file=1960s%2F1965-01-8722606-Buchanan-Virginia.pdf,-82.0320334,37.2600448,#c713e7,medium,cross
18/01/1965,"Santa Barbara, California",flying object,aircraft,https://ia601301.us.archive.org/zipview.php?zip=/8/items/bluebook/1960s.zip&file=1960s%2F1965-01-8722622-SantaBarbara-California.pdf,-119.7026673,34.4221319,#319f1d,medium,airport
19/01/1965,"Norwalk, California",light,insufficient data,https://ia801301.us.archive.org/zipview.php?zip=/8/items/bluebook/1960s.zip&file=1960s%2F1965-01-8722632-Norwalk-California.pdf,-118.0849169,33.9092802,#f90105,medium,triangle-stroked
20/01/1965,"Long Beach, Mississippi",flying object,aircraft,https://ia801301.us.archive.org/zipview.php?zip=/8/items/bluebook/1960s.zip&file=1960s%2F1965-01-8722646-LongBeach-Mississippi.pdf,-89.1528176,30.3504751,#319f1d,medium,airport
21/01/1965,"Richmond,Virginia",flying object,aircraft,https://ia601301.us.archive.org/zipview.php?zip=/8/items/bluebook/1960s.zip&file=1960s%2F1965-01-8722663-Richmond-Virginia.pdf,-77.43428,37.5385087,#319f1d,medium,airport
22/01/1965,"Baltimore,Maryland",flying object,aircraft,https://ia801301.us.archive.org/zipview.php?zip=/8/items/bluebook/1960s.zip&file=1960s%2F1965-01-8722696-Baltimore-Maryland.pdf,-76.610759,39.2908816,#319f1d,medium,airport
22/01/1965,"Elkins, West Virginia",light,Astro(sun dog),https://ia801301.us.archive.org/zipview.php?zip=/8/items/bluebook/1960s.zip&file=1960s%2F1965-01-8722674-Elkins-WestVirginia.pdf,-79.8466552,38.925927,#122c87,medium,lighthouse
23/01/1965,"Williamsburg,Virginia",witness,unidentified,https://ia601301.us.archive.org/zipview.php?zip=/8/items/bluebook/1960s.zip&file=1960s%2F1965-01-8722735-Williamsburg-Virginia.pdf,-76.7074042,37.2708788,#c713e7,medium,cross
24/01/1965,"Alaska",witness,aircraft,https://ia801301.us.archive.org/zipview.php?zip=/8/items/bluebook/1960s.zip&file=1960s%2F1965-01-8722951-ALASKA.pdf,-149.680909,64.4459613,#319f1d,medium,airport
25/01/1965,"Bedford,Virginia",flying object,unreliable report,https://ia601301.us.archive.org/zipview.php?zip=/8/items/bluebook/1960s.zip&file=1960s%2F1965-01-8722990-Bedford-Virginia.pdf,-79.5399003,37.3123905,#c713e7,medium,cross
25/01/1965,"Miami, Florida",flying object,aircraft,https://ia801301.us.archive.org/zipview.php?zip=/8/items/bluebook/1960s.zip&file=1960s%2F1965-01-8723022-Miami-Florida.pdf,-80.1936589,25.7742658,#319f1d,medium,airport
25/01/1965,"Bolar,Virginia",light,ground light,https://ia801301.us.archive.org/zipview.php?zip=/8/items/bluebook/1960s.zip&file=1960s%2F1965-01-8723028-Bolar-Virginia.pdf,-79.6764379,38.2173467,#c713e7,medium,cross
27/01/1965,"Dayton, Ohio",flying object,aircraft,https://ia601301.us.archive.org/zipview.php?zip=/8/items/bluebook/1960s.zip&file=1960s%2F1965-01-8723103-Dayton-Ohio.pdf,-84.1916069,39.7589478,#319f1d,medium,airport
27/01/1965,"Ewa Beach, Hawai",flying object,Astro(meteor),https://ia801301.us.archive.org/zipview.php?zip=/8/items/bluebook/1960s.zip&file=1960s%2F1965-01-8723137-EwaBeach-Hawaii.pdf,-158.008804,21.315603,#122c87,medium,lighthouse
27/01/1965,"Altavista,Virginia",flying object,aircraft,https://ia801301.us.archive.org/zipview.php?zip=/8/items/bluebook/1960s.zip&file=1960s%2F1965-01-8723170-Altavista-Virginia.pdf,-79.285579,37.1118094,#319f1d,medium,airport
28/01/1965,"Hampton,Virginia",flying object,balloon,https://ia601301.us.archive.org/zipview.php?zip=/8/items/bluebook/1960s.zip&file=1960s%2F1965-01-8723190-Hampton-Virginia.pdf,-76.2856365,37.0520315,#c713e7,medium,cross
30/01/1965,"Newport News,Virginia",flying object,lights on boat,https://ia801301.us.archive.org/zipview.php?zip=/8/items/bluebook/1960s.zip&file=1960s%2F1965-01-8723317-NewportNews-Virginia.pdf,-76.4321089,36.9786449,#c713e7,medium,cross
30/01/1965,"Seward, Pennsylvania",flying object,Astro(meteor),https://ia801301.us.archive.org/zipview.php?zip=/8/items/bluebook/1960s.zip&file=1960s%2F1965-01-8723329-Seward-Pennsylvania.pdf,-79.0200291,40.4142379,#122c87,medium,lighthouse
30/01/1965,"La Selva Beach, California",landing,unreliable report,https://ia801301.us.archive.org/zipview.php?zip=/8/items/bluebook/1960s.zip&file=1960s%2F1965-01-8723275-LaSelvaBeach-California.pdf,-121.8627775,36.936571,#c713e7,medium,cross
30/01/1965,"Hinton, Oklahoma",light,birds,https://ia601301.us.archive.org/zipview.php?zip=/8/items/bluebook/1960s.zip&file=1960s%2F1965-01-8723341-Hinton-Oklahoma.pdf,-98.3556162,35.4714415,#f59905,medium,zoo
30/01/1965,"Mecca, California",,eccentric witness,https://ia801301.us.archive.org/zipview.php?zip=/8/items/bluebook/1960s.zip&file=1960s%2F1965-01-8723200-Mecca-California.pdf,-116.069708221225,33.5511969,#c713e7,medium,cross
01/02/1965,"British Columbia, Canada",flying object,hoax,https://ia801301.us.archive.org/zipview.php?zip=/8/items/bluebook/1960s.zip&file=1960s%2F1960-02-6968709-BritishColumbia-Canada.pdf,-125.002441,55.001251,#c713e7,medium,cross
01/02/1965,"Jacksonville, Florida",light,satellite,https://ia601301.us.archive.org/zipview.php?zip=/8/items/bluebook/1960s.zip&file=1960s%2F1965-02-8723451-Jacksonville-Florida.pdf,-81.655651,30.3321838,#4089ba,medium,circle-stroked
02/02/1965,"Richmond,Virginia",flying object,balloon,https://ia801301.us.archive.org/zipview.php?zip=/8/items/bluebook/1960s.zip&file=1960s%2F1965-02-8723499-Richmond-Virginia.pdf,-77.43428,37.5385087,#c713e7,medium,cross
02/02/1965,"Wyandotte, Michigan",light,satellite,https://ia801301.us.archive.org/zipview.php?zip=/8/items/bluebook/1960s.zip&file=1960s%2F1965-02-8723512-Wyandotte-Michigan.pdf,-83.1510164,42.2006617,#4089ba,medium,circle-stroked
03/02/1965,"Philadelphia, Pennsylvania",witness,conflictis data,https://ia801301.us.archive.org/zipview.php?zip=/8/items/bluebook/1960s.zip&file=1960s%2F1965-02-8723578-Philadelphia-Pennsylvania.pdf,-75.1635755,39.9524152,#c713e7,medium,cross
04/02/1965,"Morgantown, North Carolina",flying object,aircraft,https://ia601301.us.archive.org/zipview.php?zip=/8/items/bluebook/1960s.zip&file=1960s%2F1965-02-8723612-Morgantown-NorthCarolina.pdf,-79.4289103,36.1220805,#319f1d,medium,airport
05/02/1965,"Janesville, Wisconsin",flying object,Astro(meteor),https://ia801301.us.archive.org/zipview.php?zip=/8/items/bluebook/1960s.zip&file=1960s%2F1965-02-8723624-Janesville-Wisconsin.pdf,-89.0226793,42.6829765,#122c87,medium,lighthouse
05/02/1965,"Moneta, Virginia",flying object,aircraft,https://ia601301.us.archive.org/zipview.php?zip=/8/items/bluebook/1960s.zip&file=1960s%2F1965-02-8723660-Moneta-Virginia.pdf,-79.6172536,37.1812537,#319f1d,medium,airport
06/02/1965,"Liberty, Ohio",flying object,metal ball,https://ia801301.us.archive.org/zipview.php?zip=/8/items/bluebook/1960s.zip&file=1960s%2F1965-02-8723676-Liberty-Ohio.pdf,-84.324944,39.7200573,#c713e7,medium,cross
09/02/1965,"San Juan, Puerto Rico",flying object,aircraft,https://ia801301.us.archive.org/zipview.php?zip=/8/items/bluebook/1960s.zip&file=1960s%2F1965-02-8723806-SanJuan-PuertoRico.pdf,-66.4132818505648,18.22141715,#319f1d,medium,airport
13/02/1965,"Hibbing, Minnesota",flying object,Astro(meteor),https://ia801301.us.archive.org/zipview.php?zip=/8/items/bluebook/1960s.zip&file=1960s%2F1965-02-8723824-Hibbing-Minnesota.pdf,-92.937689,47.427155,#122c87,medium,lighthouse
13/02/1965,"Unknown",flying object,insufficient data,https://ia801301.us.archive.org/zipview.php?zip=/8/items/bluebook/1960s.zip&file=1960s%2F1965-02-8723843-Unknown.pdf,-77.2941536448326,25.0387049,#f90105,medium,triangle-stroked
13/02/1965,"Costa Mesa, California",flying object,ground light,https://ia601301.us.archive.org/zipview.php?zip=/8/items/bluebook/1960s.zip&file=1960s%2F1965-02-8723847-CostaMesa-California.pdf,-117.903317,33.6633386,#c713e7,medium,cross
15/02/1965,"Alexandria, Va",flying object,birds,https://ia801301.us.archive.org/zipview.php?zip=/8/items/bluebook/1960s.zip&file=1960s%2F1965-02-8723857-Alexandria-Va.pdf,-77.0902476527272,38.8147596,#f59905,medium,zoo
15/02/1965,"Hyattsville, Maryland",flying object,aircraft,https://ia801301.us.archive.org/zipview.php?zip=/8/items/bluebook/1960s.zip&file=1960s%2F1965-02-8723882-Hyattsville-Maryland.pdf,-76.9408758,38.9529792,#319f1d,medium,airport
16/02/1965,"South Dakota",flying object,Astro(meteor),https://ia801301.us.archive.org/zipview.php?zip=/8/items/bluebook/1960s.zip&file=1960s%2F1965-02-8723905-SouthDakota.pdf,-100.348761,44.6471761,#122c87,medium,lighthouse
18/02/1965,"Dayton, Ohio",flying object,aircraft,https://ia801301.us.archive.org/zipview.php?zip=/8/items/bluebook/1960s.zip&file=1960s%2F1965-02-8723915-Dayton-Ohio.pdf,-84.1916069,39.7589478,#319f1d,medium,airport
18/02/1965,"Newport News,Virginia",flying object,unreliable report,https://ia601301.us.archive.org/zipview.php?zip=/8/items/bluebook/1960s.zip&file=1960s%2F1965-02-8723932-NewportNews-Virginia.pdf,-76.4321089,36.9786449,#c713e7,medium,cross
18/02/1965,"Kansas City, Mo",flying object,satellite,https://ia801301.us.archive.org/zipview.php?zip=/8/items/bluebook/1960s.zip&file=1960s%2F1965-02-8723943-KansasCity-Mo.pdf,-94.5781416,39.100105,#4089ba,medium,circle-stroked
18/02/1965,"Colorado Woodland Park, Colorado",flying object,Astro(meteor),https://ia801301.us.archive.org/zipview.php?zip=/8/items/bluebook/1960s.zip&file=1960s%2F1965-02-8723971-Colorado-WoodlandPark-Colorado.pdf,-105.067089,39.0160095,#122c87,medium,lighthouse
20/02/1965,"Hugo, Oklahoma",flying object,balloon,https://ia601301.us.archive.org/zipview.php?zip=/8/items/bluebook/1960s.zip&file=1960s%2F1965-02-8723991-Hugo-Oklahoma.pdf,-95.5128978,34.010946,#c713e7,medium,cross
21/02/1965,"Washington, DC",flying object,Astro(Acturus),https://ia601301.us.archive.org/zipview.php?zip=/8/items/bluebook/1960s.zip&file=1960s%2F1965-02-8724001-Washington-DC.pdf,-77.0365625,38.8950092,#122c87,medium,lighthouse
21/02/1965,"Kingsley Field, Oregon",flying object,Astro(meteor),https://ia801301.us.archive.org/zipview.php?zip=/8/items/bluebook/1960s.zip&file=1960s%2F1965-02-8724007-KingsleyField-Oregon.pdf,-121.739790375145,42.15475295,#122c87,medium,lighthouse
22/02/1965,"Olean, New York",flying object,Astro(Acturus),https://ia801301.us.archive.org/zipview.php?zip=/8/items/bluebook/1960s.zip&file=1960s%2F1965-02-9557058-Olean-NewYork.pdf,-78.4297419,42.077565,#122c87,medium,lighthouse
25/02/1965,"S Rockville, Maryland",flying object,birds,https://ia601301.us.archive.org/zipview.php?zip=/8/items/bluebook/1960s.zip&file=1960s%2F1965-02-8724026-SRockville-Maryland.pdf,-77.1527573,39.0840054,#f59905,medium,zoo
25/02/1965,"Houma, Louisiana",flying object,aircraft,https://ia601301.us.archive.org/zipview.php?zip=/8/items/bluebook/1960s.zip&file=1960s%2F1965-02-8724043-Houma-Louisiana.pdf,-90.7195348,29.5957696,#319f1d,medium,airport
27/02/1965,"Rivesville, W Virginia",flying object,psychological,https://ia801301.us.archive.org/zipview.php?zip=/8/items/bluebook/1960s.zip&file=1960s%2F1965-02-8724085-Rivesville-WVirginia.pdf,-80.1167417,39.5298059,#c713e7,medium,cross
27/02/1965,"Ft Benning, Georgia",light ,satellite,https://ia801301.us.archive.org/zipview.php?zip=/8/items/bluebook/1960s.zip&file=1960s%2F1965-02-8724068-FtBenning-Georgia.pdf,-84.9688191,32.3523691,#4089ba,medium,circle-stroked
02/03/1965,"Dayton, Ohio",flying object,aircraft,https://ia801301.us.archive.org/zipview.php?zip=/8/items/bluebook/1960s.zip&file=1960s%2F1965-03-8724147-Dayton-Ohio.pdf,-84.1916069,39.7589478,#319f1d,medium,airport
02/03/1965,"Brooksville, Florida",flying object,hoax,https://ia801301.us.archive.org/zipview.php?zip=/8/items/bluebook/1960s.zip&file=1960s%2F1965-03-9070256-Brooksville-Florida.pdf,-82.3924737,28.5559352,#c713e7,medium,cross
03/03/1965,"Louisiana",light,aircraft,https://ia801301.us.archive.org/zipview.php?zip=/8/items/bluebook/1960s.zip&file=1960s%2F1965-03-8724171-%5BILLEGIBLE%5D.pdf,-92.007126,30.8703881,#319f1d,medium,airport
04/03/1965,"New York City",flying object,satellite,https://ia801301.us.archive.org/zipview.php?zip=/8/items/bluebook/1960s.zip&file=1960s%2F1965-03-8724245-NewYorkCity-NewYork.pdf,-73.9871558,40.7308619,#4089ba,medium,circle-stroked
04/03/1965,"Corvallis, Oregon",light,unidentified,https://ia801301.us.archive.org/zipview.php?zip=/8/items/bluebook/1960s.zip&file=1960s%2F1965-03-8724286-Corvallis-Oregon.pdf,-123.2620435,44.5645659,#c713e7,medium,cross
05/03/1965,"Albuquerque, New Mexico",flying object,aircraft,https://ia801301.us.archive.org/zipview.php?zip=/8/items/bluebook/1960s.zip&file=1960s%2F1965-03-8724344-Albuquerque-NewMexico.pdf,-106.6509851,35.0841034,#319f1d,medium,airport
06/03/1965,"Washington, DC",flying object,Astro(meteor),https://ia601301.us.archive.org/zipview.php?zip=/8/items/bluebook/1960s.zip&file=1960s%2F1965-03-8724403-Washington-DC.pdf,-77.0365625,38.8950092,#122c87,medium,lighthouse
09/03/1965,"Dayton, Ohio",light,aircraft,https://ia801301.us.archive.org/zipview.php?zip=/8/items/bluebook/1960s.zip&file=1960s%2F1965-03-8724147-Dayton-Ohio.pdf,-84.1916069,39.7589478,#319f1d,medium,airport
10/03/1965,"Deer Park, Maryland",flying object,balloon,https://ia801301.us.archive.org/zipview.php?zip=/8/items/bluebook/1960s.zip&file=1960s%2F1965-03-8724500-DeerPark-Maryland.pdf,-76.3085694,39.6417726,#c713e7,medium,cross
10/03/1965,"Beverly, Ohio",light,psychological,https://ia801301.us.archive.org/zipview.php?zip=/8/items/bluebook/1960s.zip&file=1960s%2F1965-03-8724171-%5BILLEGIBLE%5D.pdf,-81.6393772,39.5480179,#c713e7,medium,cross
10/03/1965,"Kansas City, Missouri",light,Astro(Jupiter),https://ia801301.us.archive.org/zipview.php?zip=/8/items/bluebook/1960s.zip&file=1960s%2F1965-03-8724458-KansasCity-Missouri.pdf,-94.5781416,39.100105,#122c87,medium,lighthouse
10/03/1965,"Youngstown, Ohio",light,psychological ,https://ia601301.us.archive.org/zipview.php?zip=/8/items/bluebook/1960s.zip&file=1960s%2F1965-03-8724556-Youngstown-Ohio.pdf,-80.6520161,41.1035786,#c713e7,medium,cross
11/03/1965,"Jacksonville, Florida",flare,Astro(meteor),https://ia801301.us.archive.org/zipview.php?zip=/8/items/bluebook/1960s.zip&file=1960s%2F1965-03-8724594-Jacksonville-Florida.pdf,-81.655651,30.3321838,#122c87,medium,lighthouse
13/03/1965,"Rochester, New York",flying object,aircraft,https://ia601301.us.archive.org/zipview.php?zip=/8/items/bluebook/1960s.zip&file=1960s%2F1965-03-9068001-Rochester-NewYork.pdf,-77.615214,43.157285,#319f1d,medium,airport
15/03/1965,"Lincoln, Nebraska",light,aircraft,https://ia801301.us.archive.org/zipview.php?zip=/8/items/bluebook/1960s.zip&file=1960s%2F1965-03-9068112-Lincoln-Nebraska.pdf,-96.667821,40.8,#319f1d,medium,airport
15/03/1965,"Saigon, South Vietnam",,aircraft,https://ia801301.us.archive.org/zipview.php?zip=/8/items/bluebook/1960s.zip&file=1960s%2F1965-03-9068033-Saigon-SouthVietNam.pdf,106.7017555,10.7758439,#319f1d,medium,airport
16/03/1965,"Halifax, Nova Scotia and Canada",flying object,satellite,https://ia601301.us.archive.org/zipview.php?zip=/8/items/bluebook/1960s.zip&file=1960s%2F1965-03-9068163-Halifax-NovaScotiaandCanada.pdf,-63.5859487,44.6486237,#4089ba,medium,circle-stroked
22/03/1965,"Peekskill, NY",flying object,psychological ,https://ia801301.us.archive.org/zipview.php?zip=/8/items/bluebook/1960s.zip&file=1960s%2F1965-03-9068604-Peekskill-N-Y.pdf,-73.9204922,41.289811,#c713e7,medium,cross
25/03/1965,"Rangoon, Burma",light,Astro(meteor),https://ia801301.us.archive.org/zipview.php?zip=/8/items/bluebook/1960s.zip&file=1960s%2F1965-03-9068803-Rangoon-Burma.pdf,96.1609916,16.7967129,#122c87,medium,lighthouse
26/03/1965,"Florida",flying object,,https://ia801301.us.archive.org/zipview.php?zip=/8/items/bluebook/1960s.zip&file=1960s%2F1965-03-8724171-%5BILLEGIBLE%5D.pdf,-81.4639835,27.7567667,#c713e7,medium,cross
27/03/1965,"Springfield, Ohio",light,aircraft,https://ia801301.us.archive.org/zipview.php?zip=/8/items/bluebook/1960s.zip&file=1960s%2F1965-03-9068956-Springfield-Ohio.pdf,-83.8088172,39.9242266,#319f1d,medium,airport
30/03/1965,"Dayton, Ohio",flying object,Astro(Aldebaran),https://ia801301.us.archive.org/zipview.php?zip=/8/items/bluebook/1960s.zip&file=1960s%2F1965-03-8724147-Dayton-Ohio.pdf,-84.1916069,39.7589478,#122c87,medium,lighthouse
30/03/1965,"Barberton, Ohio",flying object,insufficient data ,https://ia801301.us.archive.org/zipview.php?zip=/8/items/bluebook/1960s.zip&file=1960s%2F1965-03-9069130-Barberton-Ohio.pdf,-81.6051221,41.012833,#c713e7,medium,cross
30/03/1965,"Dayton, Ohio",light,aircraft,https://ia801301.us.archive.org/zipview.php?zip=/8/items/bluebook/1960s.zip&file=1960s%2F1965-03-8724147-Dayton-Ohio.pdf,-84.1916069,39.7589478,#319f1d,medium,airport
30/03/1965,"Bellbrook, Ohio",light,aircraft,https://ia601301.us.archive.org/zipview.php?zip=/8/items/bluebook/1960s.zip&file=1960s%2F1965-03-9069571-Bellbrook-Ohio.pdf,-84.0701766,39.6358399,#319f1d,medium,airport
30/03/1965,"Pacific, California",light,Astro(meteor),https://ia601301.us.archive.org/zipview.php?zip=/8/items/bluebook/1960s.zip&file=1960s%2F1965-03-9069656-Pacific100miWCalifornia.pdf,-120.5071461,38.7601815,#122c87,medium,lighthouse
30/03/1965,"Lewisburg, Ohio",light,Astro(Jupiter),https://ia601301.us.archive.org/zipview.php?zip=/8/items/bluebook/1960s.zip&file=1960s%2F1965-03-9070961-Lewisburg-Ohio.pdf,-84.5396736,39.8461629,#122c87,medium,lighthouse
31/03/1965,"Dayton, Ohio",flying object,aircraft,https://ia801301.us.archive.org/zipview.php?zip=/8/items/bluebook/1960s.zip&file=1960s%2F1965-03-8724147-Dayton-Ohio.pdf,-84.1916069,39.7589478,#319f1d,medium,airport
31/03/1965,"Larson AFB",flying object,Astro(meteor),https://ia801301.us.archive.org/zipview.php?zip=/8/items/bluebook/1960s.zip&file=1960s%2F1965-03-9069706-LarsonAFB-Washington.pdf,-95.9658174,41.1262955,#122c87,medium,lighthouse
31/03/1965,"Dayton, Ohio",light,Astro(Mars),https://ia801301.us.archive.org/zipview.php?zip=/8/items/bluebook/1960s.zip&file=1960s%2F1965-03-8724147-Dayton-Ohio.pdf,-84.1916069,39.7589478,#122c87,medium,lighthouse
04/1965,"Pittsburgh, Pennsylvania",light,insufficient data ,https://ia801301.us.archive.org/zipview.php?zip=/8/items/bluebook/1960s.zip&file=1960s%2F1965-04-9071191-Pittsburgh-Pennsylvania.pdf,-79.9900861,40.4416941,#c713e7,medium,cross
01/04/1965,"Dayton, Ohio",light,Astro(Mars),https://ia801301.us.archive.org/zipview.php?zip=/8/items/bluebook/1960s.zip&file=1960s%2F1965-04-9071223-Dayton-Ohio.pdf,-84.1916069,39.7589478,#122c87,medium,lighthouse
04/04/1965,"Keesler AFB, Mississippi",flying object,unidentified,https://ia801301.us.archive.org/zipview.php?zip=/8/items/bluebook/1960s.zip&file=1960s%2F1965-04-9071466-KeeslerAFB-Mississippi.pdf,-88.9188649672589,30.4094294,#c713e7,medium,cross
04/04/1965,"Florida",light,satellite,https://ia801301.us.archive.org/zipview.php?zip=/8/items/bluebook/1960s.zip&file=1960s%2F1965-04-9071286-%5BILLEGIBLE%5D.pdf,-81.4639835,27.7567667,#4089ba,medium,circle-stroked
04/04/1965,"Tampa, Florida",light,cellometer,https://ia801301.us.archive.org/zipview.php?zip=/8/items/bluebook/1960s.zip&file=1960s%2F1965-04-9071538-Tampa-Florida.pdf,-82.458444,27.9477595,#c713e7,medium,cross
06/04/1965,"Fairfax, Virginia",flying object,balloon,https://ia801301.us.archive.org/zipview.php?zip=/8/items/bluebook/1960s.zip&file=1960s%2F1965-04-9071615-Fairfax-Virginia.pdf,-77.3063733,38.8462236,#c713e7,medium,cross
06/04/1965,"Dundee, Minnesota",flying object,unidentified,https://ia601301.us.archive.org/zipview.php?zip=/8/items/bluebook/1960s.zip&file=1960s%2F1965-04-9071643-Dundee-Minnesota.pdf,-95.4669479,43.8469059,#c713e7,medium,cross
09/04/1965,"Duluth, Minnesota",flying object,balloon,https://ia601301.us.archive.org/zipview.php?zip=/8/items/bluebook/1960s.zip&file=1960s%2F1965-04-9071683-Duluth-Minnesota.pdf,-92.1251218,46.7729322,#c713e7,medium,cross
14/04/1965,"Lodi, New Jersey",flying object,satellite,https://ia801301.us.archive.org/zipview.php?zip=/8/items/bluebook/1960s.zip&file=1960s%2F1965-04-9071831-Lodi-NewJersey.pdf,-74.0831971,40.8823215,#4089ba,medium,circle-stroked
15/04/1965,"Durand, Illinois",flying object,Astro(meteor),https://ia601301.us.archive.org/zipview.php?zip=/8/items/bluebook/1960s.zip&file=1960s%2F1965-04-9071865-Durand-Illinois.pdf,-89.3320582,42.4364033,#122c87,medium,lighthouse
15/04/1965,"Omaha, Nebraska",light,aircraft,https://ia801301.us.archive.org/zipview.php?zip=/8/items/bluebook/1960s.zip&file=1960s%2F1965-04-9071956-Omaha-Nebraska.pdf,-95.9378732,41.2587317,#319f1d,medium,airport
16/04/1965,"NW of Indianapolis, Indiana",flying object,Astro(meteor),https://ia601301.us.archive.org/zipview.php?zip=/8/items/bluebook/1960s.zip&file=1960s%2F1965-04-9071996-NWofIndianapolis-Indiana.pdf,-86.162618335981,39.76861465,#122c87,medium,lighthouse
20/04/1965,"Richardson, Texas",flying object,insufficient data ,https://ia601301.us.archive.org/zipview.php?zip=/8/items/bluebook/1960s.zip&file=1960s%2F1965-04-9072490-Richardson-Texas.pdf,-96.7297206,32.9481789,#c713e7,medium,cross
20/04/1965,"Boyertown, Pennsylvania",flying object,birds,https://ia601301.us.archive.org/zipview.php?zip=/8/items/bluebook/1960s.zip&file=1960s%2F1965-04-9072506-Boyertown-Pennsylvania.pdf,-75.6374083,40.3337075,#f59905,medium,zoo
20/04/1965,"Coden, Alabama",light,insufficient data ,https://ia601301.us.archive.org/zipview.php?zip=/8/items/bluebook/1960s.zip&file=1960s%2F1965-04-9072054-Coden-Alabama.pdf,-88.2383363,30.3829771,#c713e7,medium,cross
29/04/1965,"Winter Park, Florida",flying object,aircraft,https://ia801301.us.archive.org/zipview.php?zip=/8/items/bluebook/1960s.zip&file=1960s%2F1965-04-9072397-WinterPark-Florida.pdf,-81.3427438436485,28.6000625,#319f1d,medium,airport
29/04/1965,"Washington, DC",light,satellite,https://ia801301.us.archive.org/zipview.php?zip=/8/items/bluebook/1960s.zip&file=1960s%2F1965-04-9072436-Washington-D-C.pdf,-77.0365625,38.8950092,#4089ba,medium,circle-stroked
01/05/1965,"Dayton, Ohio",flying object,satellite,https://ia601301.us.archive.org/zipview.php?zip=/8/items/bluebook/1960s.zip&file=1960s%2F1965-05-9072731-Dayton-Ohio.pdf,-84.1916069,39.7589478,#4089ba,medium,circle-stroked
05/1965,"Burlington, Massachusetts",light,unreliable report,https://ia801301.us.archive.org/zipview.php?zip=/8/items/bluebook/1960s.zip&file=1960s%2F1965-05-9072586-Burlington-Massachusetts.pdf,-71.1956111,42.5048167,#c713e7,medium,cross
02/05/1965,"Clarksville, Ohio",flying object,satellite,https://ia801301.us.archive.org/zipview.php?zip=/8/items/bluebook/1960s.zip&file=1960s%2F1965-05-9073413-Clarksville-Ohio.pdf,-82.2912613,39.7053462,#4089ba,medium,circle-stroked
02/05/1965,"College Park, Georgia",light,satellite,https://ia801301.us.archive.org/zipview.php?zip=/8/items/bluebook/1960s.zip&file=1960s%2F1965-05-9073260-CollegePark-Georgia.pdf,-84.4493725,33.6534427,#4089ba,medium,circle-stroked
03/05/1965,"Chesapeake, Virginia",flying object,satellite,https://ia801301.us.archive.org/zipview.php?zip=/8/items/bluebook/1960s.zip&file=1960s%2F1965-05-9073481-Chesapeake-Virginia.pdf,-76.2466798,36.7183708,#4089ba,medium,circle-stroked
04/05/1965,"Piedmont, Alabama",flying object,satellite,https://ia801301.us.archive.org/zipview.php?zip=/8/items/bluebook/1960s.zip&file=1960s%2F1965-05-9073518-Piedmont-Alabama.pdf,-85.6113501,33.9245454,#4089ba,medium,circle-stroked
06/05/1965,"Brookville, Ohio",flying object,aircraft,https://ia601301.us.archive.org/zipview.php?zip=/8/items/bluebook/1960s.zip&file=1960s%2F1965-05-9073588-Brookville-Ohio.pdf,-84.4113366,39.8367207,#319f1d,medium,airport
07/05/1965,"Oxford, Michigan",flying object,unidentified,https://ia801301.us.archive.org/zipview.php?zip=/8/items/bluebook/1960s.zip&file=1960s%2F1965-05-9073625-Oxford-Michigan.pdf,-83.2646624,42.8247524,#c713e7,medium,cross
07/05/1965,"Pearl Harbor, Hawaii",flying object,satellite,https://ia801301.us.archive.org/zipview.php?zip=/8/items/bluebook/1960s.zip&file=1960s%2F1965-05-9073675-PearlHarbor-Hawaii.pdf,-157.999129760136,21.35577485,#4089ba,medium,circle-stroked
07/05/1965,"Anaheim, California",flying object,satellite,https://ia601301.us.archive.org/zipview.php?zip=/8/items/bluebook/1960s.zip&file=1960s%2F1965-05-9073716-Anaheim-California.pdf,-117.911732,33.8347516,#4089ba,medium,circle-stroked
09/05/1965,"Mequon, Wisconsin",flying object,aircraft,https://ia801301.us.archive.org/zipview.php?zip=/8/items/bluebook/1960s.zip&file=1960s%2F1965-05-9073791-Mequon-Wisconsin.pdf,-87.9822969,43.2219088,#319f1d,medium,airport
13/05/1965,"Storm Lake, Iowa",flying object,aircraft,https://ia801301.us.archive.org/zipview.php?zip=/8/items/bluebook/1960s.zip&file=1960s%2F1965-05-9073843-StormLake-Iowa.pdf,-95.1992916,42.6453271,#319f1d,medium,airport
13/05/1965,"Orlando, Florida",light,aircraft,https://ia801301.us.archive.org/zipview.php?zip=/8/items/bluebook/1960s.zip&file=1960s%2F1965-05-9073829-Orlando-Florida.pdf,-81.3790388,28.5421097,#319f1d,medium,airport
15/05/1965,"Oil City, Pennsylvania",flying object,aircraft,https://ia601301.us.archive.org/zipview.php?zip=/8/items/bluebook/1960s.zip&file=1960s%2F1965-05-9073884-OilCity-Pennsylvania.pdf,-79.706441,41.433948,#319f1d,medium,airport
17/05/1965,"Tiffin, Ohio",disc,aircraft,https://ia601301.us.archive.org/zipview.php?zip=/8/items/bluebook/1960s.zip&file=1960s%2F1965-05-9073899-Tiffin-Ohio.pdf,-83.1779537,41.114485,#319f1d,medium,airport
18/05/1965,"Lewisburg, Ohio",light,aircraft,https://ia801301.us.archive.org/zipview.php?zip=/8/items/bluebook/1960s.zip&file=1960s%2F1965-05-9073972-Lewisburg-Ohio.pdf,-84.5396736,39.8461629,#319f1d,medium,airport
25/05/1965,"Thailand",flying object,rocket,https://ia601301.us.archive.org/zipview.php?zip=/8/items/bluebook/1960s.zip&file=1960s%2F1965-05-9074065-Thailand.pdf,100.83273,14.8971921,#c713e7,medium,cross
25/05/1965,"Washington, DC",light,Astro(meteor),https://ia801301.us.archive.org/zipview.php?zip=/8/items/bluebook/1960s.zip&file=1960s%2F1965-05-9074128-Washington-DC.pdf,-77.0365625,38.8950092,#122c87,medium,lighthouse
26/05/1965,"Lynn, Massachusetts",flying object,insufficient data,https://ia801301.us.archive.org/zipview.php?zip=/8/items/bluebook/1960s.zip&file=1960s%2F1965-05-9074179-Lynn-Massachusetts.pdf,-70.9494939,42.466763,#f90105,medium,triangle-stroked
27/05/1965,"Economy, Pennsylvania",flying object,aircraft,https://ia601301.us.archive.org/zipview.php?zip=/8/items/bluebook/1960s.zip&file=1960s%2F1965-05-9074164-Economy-Pennsylvania.pdf,-80.1938574,40.631752,#319f1d,medium,airport
28/05/1965,"Macon, Georgia",flying object,insufficient data,https://ia801301.us.archive.org/zipview.php?zip=/8/items/bluebook/1960s.zip&file=1960s%2F1965-05-9074191-Macon-Georgia.pdf,-83.6324022,32.8406946,#f90105,medium,triangle-stroked
29/05/1965,"New Bedford, Massachusetts",flying object,Astro(meteor),https://ia601301.us.archive.org/zipview.php?zip=/8/items/bluebook/1960s.zip&file=1960s%2F1965-05-9074215-NewBedford-Massachusetts.pdf,-70.934205,41.6362152,#122c87,medium,lighthouse
29/05/1965,"Tuscon, Arizona",light,aircraft,https://ia801301.us.archive.org/zipview.php?zip=/8/items/bluebook/1960s.zip&file=1960s%2F1965-05-9074226-Tuscon-Arizona.pdf,-111.0827636,32.3094298,#319f1d,medium,airport
31/05/1965,"Piqua, Ohio",flying object,aircraft,https://ia801301.us.archive.org/zipview.php?zip=/8/items/bluebook/1960s.zip&file=1960s%2F1965-05-9074311-Piqua-Ohio.pdf,-84.2424449,40.1447732,#319f1d,medium,airport
31/05/1965,"Belmont, Ohio",,hoax,https://ia801301.us.archive.org/zipview.php?zip=/8/items/bluebook/1960s.zip&file=1960s%2F1965-05-9074292-Belmont-Ohio.pdf,-81.0097516,40.0057737,#c713e7,medium,cross
05/06/1965,"Sutersville, Pennsylvania",flying object,balloon,https://ia601301.us.archive.org/zipview.php?zip=/8/items/bluebook/1960s.zip&file=1960s%2F1965-06-9074568-Sutersville-Pennsylvania.pdf,-79.8017975,40.2365804,#c713e7,medium,cross
05/06/1965,"Marysville, Washington",flying object,aircraft, ,-122.1768209,48.0517429,#319f1d,medium,airport
08/06/1965,"Turkey",flying object,radar,https://ia601301.us.archive.org/zipview.php?zip=/8/items/bluebook/1960s.zip&file=1960s%2F1965-06-9074625-Turkey.pdf,34.9249653,38.9597594,#c713e7,medium,cross
11/06/1965,"Mobile, Alabama",flying object,Astro(meteor),https://ia601301.us.archive.org/zipview.php?zip=/8/items/bluebook/1960s.zip&file=1960s%2F1965-06-9074646-Mobile-Alabama.pdf,-88.0430541,30.6943566,#122c87,medium,lighthouse
13/06/1965,"Kettering, Ohio",light,satellite,https://ia601301.us.archive.org/zipview.php?zip=/8/items/bluebook/1960s.zip&file=1960s%2F1965-06-9074663-Kettering-Ohio.pdf,-84.1688274,39.6895036,#4089ba,medium,circle-stroked
20/06/1965,"Mifflin, Pennsylvania",flying object,balloon,https://ia801301.us.archive.org/zipview.php?zip=/8/items/bluebook/1960s.zip&file=1960s%2F1965-06-9074715-PittsburghArea-Pennsylvania.pdf,-77.6215085,40.6099183,#c713e7,medium,cross
20/06/1965,"Irwin, Pennsylvania",flying object,balloon,https://ia801301.us.archive.org/zipview.php?zip=/8/items/bluebook/1960s.zip&file=1960s%2F1965-06-9074715-PittsburghArea-Pennsylvania.pdf,-79.7093339,40.3301738,#c713e7,medium,cross
20/06/1965,"Pennsylvania",flying object,balloon,https://ia801301.us.archive.org/zipview.php?zip=/8/items/bluebook/1960s.zip&file=1960s%2F1965-06-9074715-PittsburghArea-Pennsylvania.pdf,-77.7278831,40.9699889,#c713e7,medium,cross
20/06/1965,"Indianapolis, Indiana",flying object,physiological,https://ia601301.us.archive.org/zipview.php?zip=/8/items/bluebook/1960s.zip&file=1960s%2F1965-06-9074780-Indianapolis-Indiana.pdf,-86.1583502,39.7683331,#c713e7,medium,cross
21/06/1965,"Pittsburg, Pennsylvania",flying object,balloon,https://ia801301.us.archive.org/zipview.php?zip=/8/items/bluebook/1960s.zip&file=1960s%2F1965-06-9074715-PittsburghArea-Pennsylvania.pdf,-79.9900861,40.4416941,#c713e7,medium,cross
23/06/1965,"Sullivan, Wisconsin",light,Astro(Venus),https://ia801301.us.archive.org/zipview.php?zip=/8/items/bluebook/1960s.zip&file=1960s%2F1965-06-9074817-Sullivan-Wisconsin.pdf,-88.5881562,43.0127852,#122c87,medium,lighthouse
28/06/1965,"Albuquerque, New Mexico",flying object,balloon,https://ia801301.us.archive.org/zipview.php?zip=/8/items/bluebook/1960s.zip&file=1960s%2F1965-06-9074942-Albuquerque-NewMexico.pdf,-106.6509851,35.0841034,#c713e7,medium,cross
28/06/1965,"Sacramento, California",light,Astro(meteor),https://ia801301.us.archive.org/zipview.php?zip=/8/items/bluebook/1960s.zip&file=1960s%2F1965-06-9074933-Sacramento-California.pdf,-121.4943996,38.5815719,#122c87,medium,lighthouse
29/06/1965,"Frankfurt, Germany",flying object,reflection,https://ia801301.us.archive.org/zipview.php?zip=/8/items/bluebook/1960s.zip&file=1960s%2F1965-06-9074955-Frankfurt-Germany.pdf,8.6820917,50.1106444,#c713e7,medium,cross
29/06/1965,"Birdsboro, Pennsylvania",flying object,satellite,https://ia801301.us.archive.org/zipview.php?zip=/8/items/bluebook/1960s.zip&file=1960s%2F1965-06-9074973-Birdsboro-Pennsylvania.pdf,-75.8040852,40.2645371,#4089ba,medium,circle-stroked
01/07/1965,"Manitoba, Canada",flying object,Astro(meteor),https://ia801301.us.archive.org/zipview.php?zip=/8/items/bluebook/1960s.zip&file=1960s%2F1965-07-9075165-Manitoba-Canada.pdf,-97.001038,55.001251,#122c87,medium,lighthouse
01/07/1965,"Des Plaines, Illinois",flying object,aircraft,https://ia801301.us.archive.org/zipview.php?zip=/8/items/bluebook/1960s.zip&file=1960s%2F1965-07-9075177-DesPlaines-Illinois.pdf,-87.8873916,42.0415823,#319f1d,medium,airport
02/07/1965,"Jemez Springs, New Mexico",flying object,aircraft,https://ia801301.us.archive.org/zipview.php?zip=/8/items/bluebook/1960s.zip&file=1960s%2F1965-07-9075225-JemezSprings-NewMexico.pdf,-106.692258,35.7686356,#319f1d,medium,airport
03/07/1965,"Carlton, Michigan",flying object,satellite,https://ia801301.us.archive.org/zipview.php?zip=/8/items/bluebook/1960s.zip&file=1960s%2F1965-07-9075233-Carlton-Michigan.pdf,-85.251396,42.7267013,#4089ba,medium,circle-stroked
03/07/1965,"Lebanon, Ohio",flying object,aircraft,https://ia601301.us.archive.org/zipview.php?zip=/8/items/bluebook/1960s.zip&file=1960s%2F1965-07-9075243-Lebanon-Ohio.pdf,35.5891902,33.929793,#319f1d,medium,airport
03/07/1965,"Rochester, Minnesota",flying object,balloon,https://ia601301.us.archive.org/zipview.php?zip=/8/items/bluebook/1960s.zip&file=1960s%2F1965-07-9075253-Rochester-Minnesota.pdf,-92.4630182,44.0234387,#c713e7,medium,cross
03/07/1965,"New Milford, Connecticut",flying object,insufficient data,https://ia801301.us.archive.org/zipview.php?zip=/8/items/bluebook/1960s.zip&file=1960s%2F1965-07-9075361-NewMilford-Connecticut.pdf,-73.4117653831255,41.5867418,#f90105,medium,triangle-stroked
04/07/1965,"Columbus, Ohio",flying object,insufficient data,https://ia801301.us.archive.org/zipview.php?zip=/8/items/bluebook/1960s.zip&file=1960s%2F1965-07-9075376-Columbus-Ohio.pdf,-83.0007065,39.9622601,#f90105,medium,triangle-stroked
04/07/1965,"Dayton, Ohio",flying object,satellite,https://ia801301.us.archive.org/zipview.php?zip=/8/items/bluebook/1960s.zip&file=1960s%2F1965-07-9075401-Dayton-Ohio.pdf,-84.1916069,39.7589478,#4089ba,medium,circle-stroked
04/07/1965,"Taiwan",flying object,balloon,https://ia601301.us.archive.org/zipview.php?zip=/8/items/bluebook/1960s.zip&file=1960s%2F1965-07-9075452-Taiwan.pdf,120.835363138175,23.59829785,#c713e7,medium,cross
05/07/1965,"Lake Michigan",flying object,insufficient data,https://ia601301.us.archive.org/zipview.php?zip=/8/items/bluebook/1960s.zip&file=1960s%2F1965-07-7427457-LakeMichigan.pdf,-87.0819754408259,43.85544805,#f90105,medium,triangle-stroked
05/07/1965,"Chicago, Illinois",flying object,Astro(Saturn),https://ia801301.us.archive.org/zipview.php?zip=/8/items/bluebook/1960s.zip&file=1960s%2F1965-07-7427477-Chicago-Illinois.pdf,-87.6244212,41.8755616,#122c87,medium,lighthouse
05/07/1965,"Xenia, Ohio",flying object,aircraft,https://ia801301.us.archive.org/zipview.php?zip=/8/items/bluebook/1960s.zip&file=1960s%2F1965-07-7427822-Xenia-Ohio.pdf,-83.9296526,39.6847822,#319f1d,medium,airport
05/07/1965,"Independence, Mo",flying object,satellite,https://ia601301.us.archive.org/zipview.php?zip=/8/items/bluebook/1960s.zip&file=1960s%2F1965-07-7428002-Independence-Mo.pdf,-94.4137923,39.0924792,#4089ba,medium,circle-stroked
05/07/1965,"Bellingham, Washington",flying object,satellite,https://ia801301.us.archive.org/zipview.php?zip=/8/items/bluebook/1960s.zip&file=1960s%2F1965-07-7428048-Bellingham-Washington.pdf,-122.5111721,48.7206203,#4089ba,medium,circle-stroked
05/07/1965,"Independence, Mo",light,satellite,https://ia601301.us.archive.org/zipview.php?zip=/8/items/bluebook/1960s.zip&file=1960s%2F1965-07-7428002-Independence-Mo.pdf,-94.4137923,39.0924792,#4089ba,medium,circle-stroked
06/07/1965,"McKeesport, Pennsylvania",flying object,aircraft,https://ia801301.us.archive.org/zipview.php?zip=/8/items/bluebook/1960s.zip&file=1960s%2F1965-07-7428154-McKeesport-Pennsylvania.pdf,-79.864215,40.3478472,#319f1d,medium,airport
06/07/1965,"Nicosia, Cyprus",flying object,balloon,https://ia601301.us.archive.org/zipview.php?zip=/8/items/bluebook/1960s.zip&file=1960s%2F1965-07-7428274-Nicosia-Cyprus.pdf,33.3736958666529,35.180282,#c713e7,medium,cross
06/07/1965,"Fossil, Oregon",flying object,Astro(star/planet),https://ia801301.us.archive.org/zipview.php?zip=/8/items/bluebook/1960s.zip&file=1960s%2F1965-07-7428292-Fossil-Oregon.pdf,-120.2150234,44.9980138,#122c87,medium,lighthouse
06/07/1965,"Arlington, Texas",flying object,aircraft,https://ia801301.us.archive.org/zipview.php?zip=/8/items/bluebook/1960s.zip&file=1960s%2F1965-07-7428346-Arlington-Texas.pdf,-97.105624826688,32.701939,#319f1d,medium,airport
06/07/1965,"Kiel, Wisconsin",flying object,Unidentified,https://ia601301.us.archive.org/zipview.php?zip=/8/items/bluebook/1960s.zip&file=1960s%2F1965-07-7428435-Kiel-Wisconsin.pdf,-88.0356515,43.912493,#c713e7,medium,cross
08/07/1965,"Cincinnati, Ohio",flying object,satellite,https://ia801301.us.archive.org/zipview.php?zip=/8/items/bluebook/1960s.zip&file=1960s%2F1965-07-7428492-Cincinnati-Ohio.pdf,-84.5124602,39.1014537,#4089ba,medium,circle-stroked
08/07/1965,"Peru, Indiana",flying object,aircraft,https://ia801301.us.archive.org/zipview.php?zip=/8/items/bluebook/1960s.zip&file=1960s%2F1965-07-7428525-Peru-Indiana.pdf,-73.0439406,-3.4999226,#319f1d,medium,airport
11/07/1965,"Summerset, Pennsylvania",flying object,aircraft,https://ia801301.us.archive.org/zipview.php?zip=/8/items/bluebook/1960s.zip&file=1960s%2F1965-07-7432297-Summerset-Pennsylvania.pdf,-79.9126895,40.4220738,#319f1d,medium,airport
12/07/1965,Pennsylvania,flying object,balloon,https://ia801301.us.archive.org/zipview.php?zip=/8/items/bluebook/1960s.zip&file=1960s%2F1965-07-7432409-Pennsylvania.pdf,-77.7278831,40.9699889,#c713e7,medium,cross
12/07/1965,"McArthur, Ohio",flying object,satellite,https://ia801301.us.archive.org/zipview.php?zip=/8/items/bluebook/1960s.zip&file=1960s%2F1965-07-7433177-McArthur-Ohio.pdf,-82.4784898,39.2464596,#4089ba,medium,circle-stroked
12/07/1965,"Union City, Ohio",flying object,satellite,https://ia601301.us.archive.org/zipview.php?zip=/8/items/bluebook/1960s.zip&file=1960s%2F1965-07-7433307-UnionCity-Ohio.pdf,-84.8052397,40.1994911,#4089ba,medium,circle-stroked
13/07/1965,"Englewood , Ohio",flying object,aircraft,https://ia801301.us.archive.org/zipview.php?zip=/8/items/bluebook/1960s.zip&file=1960s%2F1965-07-7433539-Englewood-Ohio.pdf,-84.3021673,39.8775553,#319f1d,medium,airport
13/07/1965,"Toronto, Canada",flying object,satellite,https://ia801301.us.archive.org/zipview.php?zip=/8/items/bluebook/1960s.zip&file=1960s%2F1965-07-7433582-Toronto-Canada.pdf,-79.387207,43.653963,#4089ba,medium,circle-stroked
13/07/1965,"Burlington, Massachusetts",flying object,insufficient data,https://ia801301.us.archive.org/zipview.php?zip=/8/items/bluebook/1960s.zip&file=1960s%2F1965-07-7433721-Burlington-Massachusetts.pdf,-71.1956111,42.5048167,#f90105,medium,triangle-stroked
13/07/1965,"Smyrna, Tennessee",flying object,satellite,https://ia601301.us.archive.org/zipview.php?zip=/8/items/bluebook/1960s.zip&file=1960s%2F1965-07-7433798-Smyrna-Tennessee.pdf,-86.5186045,35.9828413,#4089ba,medium,circle-stroked
13/07/1965,"Eastmont Pa",flying object,balloon,https://ia801301.us.archive.org/zipview.php?zip=/8/items/bluebook/1960s.zip&file=1960s%2F1965-07-7433831-Eastmont-Pa.pdf,-76.827748,40.0287072,#c713e7,medium,cross
14/07/1965,"Charleston, South Carolina",flying object,satellite,https://ia801301.us.archive.org/zipview.php?zip=/8/items/bluebook/1960s.zip&file=1960s%2F1965-07-7433992-Charleston-SouthCarolina.pdf,-79.9402728,32.7876012,#4089ba,medium,circle-stroked
15/07/1965,"Sweet Home, Oregon",flying object,satellite,https://ia801301.us.archive.org/zipview.php?zip=/8/items/bluebook/1960s.zip&file=1960s%2F1965-07-7434057-SweetHome-Oregon.pdf,-122.7361959,44.3976247,#4089ba,medium,circle-stroked
16/07/1965,"Howell, Utah",flying object,aircraft,https://ia601301.us.archive.org/zipview.php?zip=/8/items/bluebook/1960s.zip&file=1960s%2F1965-07-7434244-Howell-Utah.pdf,-112.4444112,41.7960354,#319f1d,medium,airport
16/07/1965,"Presto, Pennsylvania",flying object,aircraft,https://ia601301.us.archive.org/zipview.php?zip=/8/items/bluebook/1960s.zip&file=1960s%2F1965-07-7434583-Presto-Pennsylvania.pdf,-80.1178337,40.3736804,#319f1d,medium,airport
17/07/1965,"Bermuda",flying object,satellite,https://ia601301.us.archive.org/zipview.php?zip=/8/items/bluebook/1960s.zip&file=1960s%2F1965-07-7435025-Bermuda.pdf,-64.7603583,32.3018217,#4089ba,medium,circle-stroked
17/07/1965,"Glencoe, Minnesota",flying object,aircraft,https://ia801301.us.archive.org/zipview.php?zip=/8/items/bluebook/1960s.zip&file=1960s%2F1965-07-7435044-Glencoe-Minnesota.pdf,-94.1516424,44.769129,#319f1d,medium,airport
17/07/1965,"Burbank, California",flying object,reflection,https://ia801301.us.archive.org/zipview.php?zip=/8/items/bluebook/1960s.zip&file=1960s%2F1965-07-7435100-Burbank-California.pdf,-118.3258554,34.1816482,#c713e7,medium,cross
17/07/1965,"Richmond, Missouri",flying object,satellite,https://ia801301.us.archive.org/zipview.php?zip=/8/items/bluebook/1960s.zip&file=1960s%2F1965-07-7435248-Richmond-Missouri.pdf,-93.9768876,39.278622,#4089ba,medium,circle-stroked
17/07/1965,"Raytown, Missouri",flying object,satellite,https://ia601301.us.archive.org/zipview.php?zip=/8/items/bluebook/1960s.zip&file=1960s%2F1965-07-7435273-Raytown-Missouri.pdf,-94.4630468,39.0168425,#4089ba,medium,circle-stroked
18/07/1965,"Greenville, Ohio",flying object,satellite,https://ia601301.us.archive.org/zipview.php?zip=/8/items/bluebook/1960s.zip&file=1960s%2F1965-07-7435334-Greenville-Ohio.pdf,-84.6330115,40.1028264,#4089ba,medium,circle-stroked
18/07/1965,"Vandalia, Ohio",flying object,aircraft,https://ia601301.us.archive.org/zipview.php?zip=/8/items/bluebook/1960s.zip&file=1960s%2F1965-07-7435520-Vandalia-Ohio.pdf,-84.1988308,39.8906122,#319f1d,medium,airport
19/07/1965,"Miamisburg Dayton, Ohio",flying object,satellite,https://ia601301.us.archive.org/zipview.php?zip=/8/items/bluebook/1960s.zip&file=1960s%2F1965-07-7435852-Miamisburg-Dayton-Ohio.pdf,-84.2837442814082,39.64065435,#4089ba,medium,circle-stroked
19/07/1965,"West Carrollton, Ohio",flying object,satellite,https://ia601301.us.archive.org/zipview.php?zip=/8/items/bluebook/1960s.zip&file=1960s%2F1965-07-7435960-WestCarrollton-Ohio.pdf,-84.2521632,39.6722812,#4089ba,medium,circle-stroked
19/07/1965,"Eastlake, Ohio",flying object,satellite,https://ia601301.us.archive.org/zipview.php?zip=/8/items/bluebook/1960s.zip&file=1960s%2F1965-07-7436006-Eastlake-Ohio.pdf,-81.43220925,41.659241,#4089ba,medium,circle-stroked
20/07/1965,"Roswell, New Mexico",flying object,Astro(Acturus),https://ia601301.us.archive.org/zipview.php?zip=/8/items/bluebook/1960s.zip&file=1960s%2F1965-07-7436045-Roswell-NewMexico.pdf,-104.5229518,33.3943282,#122c87,medium,lighthouse
20/07/1965,"West Fairview, Pennsylvania",flying object,aircraft,https://ia801301.us.archive.org/zipview.php?zip=/8/items/bluebook/1960s.zip&file=1960s%2F1965-07-7436169-WestFairview-Pennsylvania.pdf,-76.9155297,40.2750889,#319f1d,medium,airport
20/07/1965,"Centerville, Ohio",flying object,aircraft,https://ia801301.us.archive.org/zipview.php?zip=/8/items/bluebook/1960s.zip&file=1960s%2F1965-07-7436503-Centerville-Ohio.pdf,-84.1593818,39.6283928,#319f1d,medium,airport
20/07/1965,"Pittsburgh, Pennsylvania",flying object,satellite,https://ia801301.us.archive.org/zipview.php?zip=/8/items/bluebook/1960s.zip&file=1960s%2F1965-07-7436610-Pittsburgh-Pennsylvania.pdf,-79.9900861,40.4416941,#4089ba,medium,circle-stroked
20/07/1965,"Kettering, Ohio",light,satellite,https://ia801301.us.archive.org/zipview.php?zip=/8/items/bluebook/1960s.zip&file=1960s%2F1965-07-7436395-Kettering-Ohio.pdf,-84.1688274,39.6895036,#4089ba,medium,circle-stroked
21/07/1965,"Monticello, New York",flying object,aircraft,https://ia801301.us.archive.org/zipview.php?zip=/8/items/bluebook/1960s.zip&file=1960s%2F1965-07-7437713-Monticello-NewYork.pdf,-74.6893282,41.6556465,#319f1d,medium,airport
21/07/1965,"Corpus Christi, Texas",flying object,balloon,https://ia601301.us.archive.org/zipview.php?zip=/8/items/bluebook/1960s.zip&file=1960s%2F1965-07-7437757-CorpusChristi-Texas.pdf,-97.3955744,27.8002542,#c713e7,medium,cross
22/07/1965,"Pittsburgh, Pennsylvania",flying object,Astro(meteor),https://ia801301.us.archive.org/zipview.php?zip=/8/items/bluebook/1960s.zip&file=1960s%2F1965-07-7438078-Pittsburgh-PennsylvaniaArea.pdf,-79.9900861,40.4416941,#122c87,medium,lighthouse
22/07/1965,"Heidelberg, Pennsylvania",flying object,Astro(meteor),https://ia801301.us.archive.org/zipview.php?zip=/8/items/bluebook/1960s.zip&file=1960s%2F1965-07-7438178-Heidelberg-Pennsylvania.pdf,-80.0908886,40.3922914,#122c87,medium,lighthouse
23/07/1965,"Kelso, Washington",flying object,satellite,https://ia801301.us.archive.org/zipview.php?zip=/8/items/bluebook/1960s.zip&file=1960s%2F1965-07-7438227-Kelso-Washington.pdf,-122.9060318,46.1420334,#4089ba,medium,circle-stroked
24/07/1965,"Lincoln AFB, Nebraska",flying object,aircraft,https://ia801301.us.archive.org/zipview.php?zip=/8/items/bluebook/1960s.zip&file=1960s%2F1965-07-7438282-LincolnAFB-Nebraska.pdf,-95.924744,41.1231074,#319f1d,medium,airport
24/07/1965,"Anacortes, Washington",flying object,Astro(meteor),https://ia801301.us.archive.org/zipview.php?zip=/8/items/bluebook/1960s.zip&file=1960s%2F1965-07-7438321-Anacortes-Washington.pdf,-122.6774999,48.5073747,#122c87,medium,lighthouse
25/07/1965,"Bloomingburg, New York",flying object,aircraft,https://ia801301.us.archive.org/zipview.php?zip=/8/items/bluebook/1960s.zip&file=1960s%2F1965-07-7438433-Bloomingburg-NewYork.pdf,-74.4396014,41.5542603,#319f1d,medium,airport
25/07/1965,"Clinton County, Ohio",flying object,aircraft,https://ia601301.us.archive.org/zipview.php?zip=/8/items/bluebook/1960s.zip&file=1960s%2F1965-07-7438710-ClintonCounty-Ohio.pdf,-83.8445792,39.4259873,#319f1d,medium,airport
25/07/1965,"Battle Creek, Michigan",flying object,satellite,https://ia801301.us.archive.org/zipview.php?zip=/8/items/bluebook/1960s.zip&file=1960s%2F1965-07-7438789-BattleCreek-Michigan.pdf,-85.1824269,42.3192548,#4089ba,medium,circle-stroked
25/07/1965,"Truax Field, Wisconsin",flying object,aircraft,https://ia801301.us.archive.org/zipview.php?zip=/8/items/bluebook/1960s.zip&file=1960s%2F1965-07-7438947-TruaxField-Wisconsin.pdf,-89.3377453366062,43.1420815,#319f1d,medium,airport
25/07/1965,"Bruni, Texas",flying object,satellite,https://ia601301.us.archive.org/zipview.php?zip=/8/items/bluebook/1960s.zip&file=1960s%2F1965-07-7439014-Bruni-Texas.pdf,-98.8382294,27.428619,#4089ba,medium,circle-stroked
25/07/1965,"Illinois",flying object,satellite,https://ia601301.us.archive.org/zipview.php?zip=/8/items/bluebook/1960s.zip&file=1960s%2F1965-07-7439111-Illinois.pdf,-89.4337288,40.0796606,#4089ba,medium,circle-stroked
25/07/1965,"Castalia, Ohio",light,Unidentified,https://ia801301.us.archive.org/zipview.php?zip=/8/items/bluebook/1960s.zip&file=1960s%2F1965-07-7438823-Castalia-Ohio.pdf,-82.8085204,41.4000523,#c713e7,medium,cross
26/07/1965,"Cumberland, Maryland",flying object,insufficient data,https://ia801301.us.archive.org/zipview.php?zip=/8/items/bluebook/1960s.zip&file=1960s%2F1965-07-7439155-Cumberland-Maryland.pdf,-78.7624714,39.6528509,#f90105,medium,triangle-stroked
26/07/1965,"Nashville, Tennessee",flying object,aircraft,https://ia801301.us.archive.org/zipview.php?zip=/8/items/bluebook/1960s.zip&file=1960s%2F1965-07-7439254-Nashville-Tennessee.pdf,-86.7743531,36.1622296,#319f1d,medium,airport
26/07/1965,"Albuquerque, New Mexico",flying object,Astro(meteor),https://ia801301.us.archive.org/zipview.php?zip=/8/items/bluebook/1960s.zip&file=1960s%2F1965-07-7439343-Albuquerque-NewMexico.pdf,-106.6509851,35.0841034,#122c87,medium,lighthouse
26/07/1965,"Covina, California",flying object,insufficient data,https://ia801301.us.archive.org/zipview.php?zip=/8/items/bluebook/1960s.zip&file=1960s%2F1965-07-7439372-Covina-California.pdf,-117.854865,34.1024,#f90105,medium,triangle-stroked
26/07/1965,"Pike County, Missouri",flying object,aircraft,https://ia801301.us.archive.org/zipview.php?zip=/8/items/bluebook/1960s.zip&file=1960s%2F1965-07-7439495-PikeCounty-Missouri.pdf,-91.1825617,39.3683251,#319f1d,medium,airport
27/07/1965,"Mt Lebanon, Pennsylvania",flying object,satellite,https://ia801301.us.archive.org/zipview.php?zip=/8/items/bluebook/1960s.zip&file=1960s%2F1965-07-7439562-Mt-Lebanon-Pennsylvania.pdf,-80.0508,40.3765,#4089ba,medium,circle-stroked
27/07/1965,"Yosemite National Park, California",light,aircraft,https://ia801301.us.archive.org/zipview.php?zip=/8/items/bluebook/1960s.zip&file=1960s%2F1965-07-7439609-YosemiteNationalPark-California.pdf,-119.516587798025,37.84054795,#319f1d,medium,airport
28/07/1965,"Carswell AFB, Texas",flying object,aircraft,https://ia801301.us.archive.org/zipview.php?zip=/8/items/bluebook/1960s.zip&file=1960s%2F1965-07-7439803-CarswellAFB-Texas.pdf,-100.4135089,31.4346873,#319f1d,medium,airport
28/07/1965,"Spokane, Washington",flying object,Astro(Acturus),https://ia801301.us.archive.org/zipview.php?zip=/8/items/bluebook/1960s.zip&file=1960s%2F1965-07-7439835-Spokane-Washington.pdf,-117.4074674,47.5354964,#122c87,medium,lighthouse
29/07/1965,"Twin Falls, Idaho",flying object,Astro(meteor shower),https://ia601301.us.archive.org/zipview.php?zip=/8/items/bluebook/1960s.zip&file=1960s%2F1965-07-7439866-TwinFalls-Idaho.pdf,-114.4603171,42.5704219,#122c87,medium,lighthouse
30/07/1965,"Watauga S D",flying object,Astro(star/planet) ,https://ia801301.us.archive.org/zipview.php?zip=/8/items/bluebook/1960s.zip&file=1960s%2F1965-07-8729029-Watauga-S-D.pdf,-101.5429106,45.9227796,#122c87,medium,lighthouse
30/07/1965,"East Coast United States",light,insufficient data,https://ia601301.us.archive.org/zipview.php?zip=/8/items/bluebook/1960s.zip&file=1960s%2F1965-07-7439892-EastCoastUnitedStates.pdf,-75.08758735,39.94236755,#f90105,medium,triangle-stroked
31/07/1965,"Connersville, Indiana",flying object,insufficient data,https://ia801301.us.archive.org/zipview.php?zip=/8/items/bluebook/1960s.zip&file=1960s%2F1965-07-7439924-Connersville-Indiana.pdf,-85.1410748,39.6411589,#f90105,medium,triangle-stroked
31/07/1965,"Elmhurst, Illinois",flying object,Astro(meteor),https://ia601301.us.archive.org/zipview.php?zip=/8/items/bluebook/1960s.zip&file=1960s%2F1965-07-7439988-Elmhurst-Illinois.pdf,-87.9403418,41.8994745,#122c87,medium,lighthouse
08/1965,"Waynesville, Ohio",flying object,Astro(star/planet),https://ia801301.us.archive.org/zipview.php?zip=/8/items/bluebook/1960s.zip&file=1960s%2F1965-08-7440656-Waynesville-Ohio.pdf,-84.086601,39.5297824,#122c87,medium,lighthouse
08/1965,"Pierz, Minnesota",flying object,Astro(meteor),https://ia601301.us.archive.org/zipview.php?zip=/8/items/bluebook/1960s.zip&file=1960s%2F1965-08-7440681-Pierz-Minnesota.pdf,-94.1047124,45.9816318,#122c87,medium,lighthouse
08/1965,"Charles City, Iowa",flying object,,https://ia601301.us.archive.org/zipview.php?zip=/8/items/bluebook/1960s.zip&file=1960s%2F1965-08-7440686-CharlesCity-Iowa.pdf,-92.6724112,43.0663613,#c713e7,medium,cross
08/1965,"Albuquerque, New Mexico",flying object,aircraft,https://ia801301.us.archive.org/zipview.php?zip=/8/items/bluebook/1960s.zip&file=1960s%2F1965-08-7440756-Albuquerque-NewMexico.pdf,-106.6509851,35.0841034,#319f1d,medium,airport
01/08/1965,"West of Topeka, Kansas",flying object,ground light,https://ia601301.us.archive.org/zipview.php?zip=/8/items/bluebook/1960s.zip&file=1960s%2F1965-08-7441119-WestofTopeka-Kansas.pdf,-95.677556,39.049011,#c713e7,medium,cross
01/08/1965,"Pittsburgh, Pennsylvania",flying object,insufficient data,https://ia801301.us.archive.org/zipview.php?zip=/8/items/bluebook/1960s.zip&file=1960s%2F1965-08-7441212-Pittsburgh-Pennsylvania.pdf,-79.9900861,40.4416941,#f90105,medium,triangle-stroked
01/08/1965,"Chicago, Illinois",flying object,satellite,https://ia801301.us.archive.org/zipview.php?zip=/8/items/bluebook/1960s.zip&file=1960s%2F1965-08-7441218-Chicago-Illinois.pdf,-87.6244212,41.8755616,#4089ba,medium,circle-stroked
01/08/1965,"Hereford, Texas",flying object,Astro(meteor),https://ia801301.us.archive.org/zipview.php?zip=/8/items/bluebook/1960s.zip&file=1960s%2F1965-08-7441234-Hereford-Texas.pdf,-102.398778,34.8245521,#122c87,medium,lighthouse
01/08/1965,"Kansas City, Kansas",flying object,satellite,https://ia801301.us.archive.org/zipview.php?zip=/8/items/bluebook/1960s.zip&file=1960s%2F1965-08-7441280-KansasCity-Kansas.pdf,-94.626497,39.1134562,#4089ba,medium,circle-stroked
08/1965,"Avon, New York",light,conventional objects,https://ia801301.us.archive.org/zipview.php?zip=/8/items/bluebook/1960s.zip&file=1960s%2F1965-08-7440707-Avon-NewYork.pdf,-77.7454567,42.9119925,#c713e7,medium,cross
08/1965,"Bakersfield, California",light,aircraft,https://ia801301.us.archive.org/zipview.php?zip=/8/items/bluebook/1960s.zip&file=1960s%2F1965-08-7440724-Bakersfield-California.pdf,-119.0194639,35.3738712,#319f1d,medium,airport
08/1965,"Hamilton, Ohio",,insufficient data,https://ia601301.us.archive.org/zipview.php?zip=/8/items/bluebook/1960s.zip&file=1960s%2F1965-08-7440541-Hamilton-Ohio.pdf,-84.5501874,39.2085354,#f90105,medium,triangle-stroked
02/08/1965,"Cuyahoga Falls, Ohio",flying object,aircraft,https://ia601301.us.archive.org/zipview.php?zip=/8/items/bluebook/1960s.zip&file=1960s%2F1965-08-7441489-CuyahogaFalls-Ohio.pdf,-81.4848086,41.1348213,#319f1d,medium,airport
02/08/1965,"Florence, Arizona",flying object,satellite,https://ia601301.us.archive.org/zipview.php?zip=/8/items/bluebook/1960s.zip&file=1960s%2F1965-08-7461174-Florence-Arizona.pdf,-111.3873431,33.0314508,#4089ba,medium,circle-stroked
02/08/1965,"Ft-Worth, Texas",flying object,satellite,https://ia801301.us.archive.org/zipview.php?zip=/8/items/bluebook/1960s.zip&file=1960s%2F1965-08-7441470-Ft-Worth-Texas.pdf,-97.3327459,32.753177,#4089ba,medium,circle-stroked
02/08/1965,"Kansas City, Missouri",flying object,satellite,https://ia801301.us.archive.org/zipview.php?zip=/8/items/bluebook/1960s.zip&file=1960s%2F1965-08-7441477-KansasCity-Missouri.pdf,-94.5781416,39.100105,#4089ba,medium,circle-stroked
02/08/1965,"Cuyahoga Falls, Ohio",flying object,aircraft,https://ia801301.us.archive.org/zipview.php?zip=/8/items/bluebook/1960s.zip&file=1960s%2F1965-08-7441489-CuyahogaFalls-Ohio.pdf,-81.4848086,41.1348213,#319f1d,medium,airport
02/08/1965,"Florence, Arizona",flying object,satellite,https://ia601301.us.archive.org/zipview.php?zip=/8/items/bluebook/1960s.zip&file=1960s%2F1965-08-7461174-Florence-Arizona.pdf,-111.3873431,33.0314508,#4089ba,medium,circle-stroked
02/08/1965,"Austin,Texas",flying object,satellite,https://ia801301.us.archive.org/zipview.php?zip=/8/items/bluebook/1960s.zip&file=1960s%2F1965-08-7461254-Austin-Texas.pdf,-97.7436995,30.2711286,#4089ba,medium,circle-stroked
02/08/1965,"Dayton, Ohio",light,Astro(Spica),https://ia801301.us.archive.org/zipview.php?zip=/8/items/bluebook/1960s.zip&file=1960s%2F1965-08-7441556-Dayton-Ohio.pdf,-84.1916069,39.7589478,#122c87,medium,lighthouse
02/08/1965,"Kettering, Ohio",light,Astro(meteor),https://ia801301.us.archive.org/zipview.php?zip=/8/items/bluebook/1960s.zip&file=1960s%2F1965-08-7441576-Kettering-Ohio.pdf,-84.1688274,39.6895036,#122c87,medium,lighthouse
02/08/1965,"Alexandria, Virginia",light,reflection,https://ia801301.us.archive.org/zipview.php?zip=/8/items/bluebook/1960s.zip&file=1960s%2F1965-08-7441591-Alexandria-Virginia.pdf,-77.0902476527272,38.8147596,#c713e7,medium,cross
02/08/1965,"Dayton, Ohio",light,Astro(Spica),https://ia601301.us.archive.org/zipview.php?zip=/8/items/bluebook/1960s.zip&file=1960s%2F1965-08-7441556-Dayton-Ohio.pdf,-84.1916069,39.7589478,#122c87,medium,lighthouse
02/08/1965,"Kettering, Ohio",light,Astro(meteor),https://ia801301.us.archive.org/zipview.php?zip=/8/items/bluebook/1960s.zip&file=1960s%2F1965-08-7441576-Kettering-Ohio.pdf,-84.1688274,39.6895036,#122c87,medium,lighthouse
02/08/1965,"Alexandria,Virginia",light,reflection,https://ia801301.us.archive.org/zipview.php?zip=/8/items/bluebook/1960s.zip&file=1960s%2F1965-08-7441591-Alexandria-Virginia.pdf,-77.0902476527272,38.8147596,#c713e7,medium,cross
02/08/1965,"Waikiki Beach, Hawaii",light,conventional objects,https://ia801301.us.archive.org/zipview.php?zip=/8/items/bluebook/1960s.zip&file=1960s%2F1965-08-7461278-WaikikiBeach-Hawaii.pdf,-157.824514819965,21.273936,#c713e7,medium,cross
03/08/1965,"Albuquerque, New Mexico",flying object,flare,https://ia801301.us.archive.org/zipview.php?zip=/8/items/bluebook/1960s.zip&file=1960s%2F1965-08-7440756-Albuquerque-NewMexico.pdf,-106.6509851,35.0841034,#c713e7,medium,cross
03/08/1965,"Colorado Springs, Colorado",flying object,Astro(meteor),https://ia801301.us.archive.org/zipview.php?zip=/8/items/bluebook/1960s.zip&file=1960s%2F1965-08-7461311-ColoradoSprings-Colorado.pdf,-104.8253485,38.8339578,#122c87,medium,lighthouse
03/08/1965,"Santa Ana, California",flying object,hoax,https://ia801301.us.archive.org/zipview.php?zip=/8/items/bluebook/1960s.zip&file=1960s%2F1965-08-7461487-SantaAna-California.pdf,-117.8732213,33.7494951,#c713e7,medium,cross
03/08/1965,"Schenectady, New York",flying object,aircraft,https://ia801301.us.archive.org/zipview.php?zip=/8/items/bluebook/1960s.zip&file=1960s%2F1965-08-7463237-Schenectady-NewYork.pdf,-73.9395687,42.8142432,#319f1d,medium,airport
03/08/1965,"Laredo, Texas",flying object,aircraft,https://ia801301.us.archive.org/zipview.php?zip=/8/items/bluebook/1960s.zip&file=1960s%2F1965-08-7464008-Laredo-Texas.pdf,-99.4953764,27.5199841,#319f1d,medium,airport
03/08/1965,"Salt Springs Reservoir, California",flying object,Astro(meteor),https://ia801301.us.archive.org/zipview.php?zip=/8/items/bluebook/1960s.zip&file=1960s%2F1965-08-7464650-SaltSpringsReservoir-California.pdf,-120.182547395071,38.4972642,#122c87,medium,lighthouse
03/08/1965,"Honolulu Hawaii Area",flying object,Astro(meteor),https://ia801301.us.archive.org/zipview.php?zip=/8/items/bluebook/1960s.zip&file=1960s%2F1965-08-7464725-HonoluluHawaiiArea.pdf,-157.8556764,21.304547,#122c87,medium,lighthouse
03/08/1965,"San Mateo, Californi",flying object,Astro(meteor),https://ia801301.us.archive.org/zipview.php?zip=/8/items/bluebook/1960s.zip&file=1960s%2F1965-08-7464900-SanMateo-California.pdf,-122.3330573,37.496904,#122c87,medium,lighthouse
03/08/1965,"Gregory, Texas",light,Astro(Venus),https://ia801301.us.archive.org/zipview.php?zip=/8/items/bluebook/1960s.zip&file=1960s%2F1965-08-7462198-Gregory-Texas.pdf,-97.2899915,27.9222444,#122c87,medium,lighthouse
03/08/1965,"Cocoa, Florida",light,mirage,https://ia801301.us.archive.org/zipview.php?zip=/8/items/bluebook/1960s.zip&file=1960s%2F1965-08-7464224-Cocoa-Florida.pdf,-80.7419984,28.3861159,#c713e7,medium,cross
03/08/1965,"Brooklyn, New York",,insufficient data,https://ia801301.us.archive.org/zipview.php?zip=/8/items/bluebook/1960s.zip&file=1960s%2F1965-08-7461290-Brooklyn-NewYork.pdf,-73.9495823,40.6501038,#f90105,medium,triangle-stroked
04/08/1965,"Casa Grande, Arizona",flying object,insufficient data,https://ia601301.us.archive.org/zipview.php?zip=/8/items/bluebook/1960s.zip&file=1960s%2F1965-08-7468282-CasaGrande-Arizona.pdf,-111.7575614,32.8793816,#f90105,medium,triangle-stroked
04/08/1965,"Dallas, Texas",flying object,Astro(meteor),https://ia801301.us.archive.org/zipview.php?zip=/8/items/bluebook/1960s.zip&file=1960s%2F1965-08-7468345-Dallas-Texas.pdf,-96.7968559,32.7762719,#122c87,medium,lighthouse
04/08/1965,"Savielle, New York",flying object,Astro(meteor),https://ia801301.us.archive.org/zipview.php?zip=/8/items/bluebook/1960s.zip&file=1960s%2F1965-08-7468727-Savielle-NewYork.pdf,-73.7614651,42.8910053,#122c87,medium,lighthouse
04/08/1965,"Bangor, Maine",flying object,aircraft,https://ia801301.us.archive.org/zipview.php?zip=/8/items/bluebook/1960s.zip&file=1960s%2F1965-08-7468760-Bangor-Maine.pdf,-68.7778138,44.8011821,#319f1d,medium,airport
04/08/1965,"Glenmora, Louisiana",flying object,Astro(meteor shower),https://ia801301.us.archive.org/zipview.php?zip=/8/items/bluebook/1960s.zip&file=1960s%2F1965-08-7469123-Glenmora-Louisiana.pdf,-92.5851402,30.9765797,#122c87,medium,lighthouse
04/08/1965,"Albany, Oregon",flying object,Astro(Acturus),https://ia801301.us.archive.org/zipview.php?zip=/8/items/bluebook/1960s.zip&file=1960s%2F1965-08-7469231-Albany-Oregon.pdf,-123.1059324,44.6365071,#122c87,medium,lighthouse
04/08/1965,"Tinley Park, Illinois",flying object,unidentified,https://ia801301.us.archive.org/zipview.php?zip=/8/items/bluebook/1960s.zip&file=1960s%2F1965-08-7469766-TinleyPark-Illinois.pdf,-87.7844944,41.5733669,#c713e7,medium,cross
04/08/1965,"Clovis, California",flying object,satellite,https://ia801301.us.archive.org/zipview.php?zip=/8/items/bluebook/1960s.zip&file=1960s%2F1965-08-7470030-Clovis-California.pdf,-119.7029194,36.8252277,#4089ba,medium,circle-stroked
04/08/1965,"Waldport, Oregon",flying object,satellite,https://ia801301.us.archive.org/zipview.php?zip=/8/items/bluebook/1960s.zip&file=1960s%2F1965-08-7470088-Waldport-Oregon.pdf,-124.06868,44.426784,#4089ba,medium,circle-stroked
04/08/1965,"Sacramento, California",light,missile,https://ia801301.us.archive.org/zipview.php?zip=/8/items/bluebook/1960s.zip&file=1960s%2F1965-08-7468685-Sacramento-California.pdf,-121.4943996,38.5815719,#c713e7,medium,cross
04/08/1965,"Honolulu, Hawaii",light,insufficient data,https://ia601301.us.archive.org/zipview.php?zip=/8/items/bluebook/1960s.zip&file=1960s%2F1965-08-7469688-Honolulu-Hawaii.pdf,-157.846644178573,21.3250785,#f90105,medium,triangle-stroked
04/08/1965,"Martines, California",light,Astro(Vega),https://ia801301.us.archive.org/zipview.php?zip=/8/items/bluebook/1960s.zip&file=1960s%2F1965-08-7469975-Martines-California.pdf,-121.660534,36.750389,#122c87,medium,lighthouse
05/08/1965,"Dayton, Ohio",flying object,satellite,https://ia801301.us.archive.org/zipview.php?zip=/8/items/bluebook/1960s.zip&file=1960s%2F1965-08-7441556-Dayton-Ohio.pdf,-84.1916069,39.7589478,#4089ba,medium,circle-stroked
05/08/1965,Pacific,flying object,rocket,https://ia601301.us.archive.org/zipview.php?zip=/8/items/bluebook/1960s.zip&file=1960s%2F1965-08-7470691-28-33N145W-Pacific-.pdf,-123.768029,46.5334929,#c713e7,medium,cross
05/08/1965,"SanAntonio, Texas",flying object,insufficient data,https://ia801301.us.archive.org/zipview.php?zip=/8/items/bluebook/1960s.zip&file=1960s%2F1965-08-7470716-SanAntonio-Texas.pdf,-98.4951405,29.4246002,#f90105,medium,triangle-stroked
05/08/1965,"Bellbrook, Ohio",flying object,Astro(meteor),https://ia801301.us.archive.org/zipview.php?zip=/8/items/bluebook/1960s.zip&file=1960s%2F1965-08-7471234-Bellbrook-Ohio.pdf,-84.0701766,39.6358399,#122c87,medium,lighthouse
05/08/1965,"Greensburg, Pennsylvania",flying object,aircraft,https://ia801301.us.archive.org/zipview.php?zip=/8/items/bluebook/1960s.zip&file=1960s%2F1965-08-7471367-Greensburg-Pennsylvania.pdf,-79.5389289,40.3014581,#319f1d,medium,airport
05/08/1965,"Chicago, Illinois Area",flying object,balloon,https://ia801301.us.archive.org/zipview.php?zip=/8/items/bluebook/1960s.zip&file=1960s%2F1965-08-7471729-Chicago-IllinoisArea.pdf,-87.6244212,41.8755616,#c713e7,medium,cross
05/08/1965,"N Highland, California",flying object,Astro(Acturus),https://ia801301.us.archive.org/zipview.php?zip=/8/items/bluebook/1960s.zip&file=1960s%2F1965-08-7471767-NHighland-California.pdf,-117.2086513,34.1283442,#122c87,medium,lighthouse
05/08/1965,"Des Moines, Iowa",light,Astro(star/planet),https://ia601301.us.archive.org/zipview.php?zip=/8/items/bluebook/1960s.zip&file=1960s%2F1965-08-7471313-DesMoines-Iowa.pdf,-93.6037149,41.5910641,#122c87,medium,lighthouse
06/08/1965,"Macon, Georgia",flying object,aircraft,https://ia601301.us.archive.org/zipview.php?zip=/8/items/bluebook/1960s.zip&file=1960s%2F1965-08-7471787-Macon-Georgia.pdf,-83.6324022,32.8406946,#319f1d,medium,airport
06/08/1965,"Manitou Springs, Colorado",flying object,balloon,https://ia601301.us.archive.org/zipview.php?zip=/8/items/bluebook/1960s.zip&file=1960s%2F1965-08-7471873-ManitouSprings-Colorado.pdf,-104.9178731,38.8585777,#c713e7,medium,cross
06/08/1965,"San Rafael, California",light,aircraft,https://ia801301.us.archive.org/zipview.php?zip=/8/items/bluebook/1960s.zip&file=1960s%2F1965-08-7471923-SanRafael-California.pdf,-122.5310874,37.9735346,#319f1d,medium,airport
07/08/1965,"Andrews, Texas",flying object,Astro(meteor),https://ia801301.us.archive.org/zipview.php?zip=/8/items/bluebook/1960s.zip&file=1960s%2F1965-08-7472195-Andrews-Texas.pdf,-102.5457155,32.3187158,#122c87,medium,lighthouse
07/08/1965,"McKinney, Texas",flying object,insufficient data,https://ia801301.us.archive.org/zipview.php?zip=/8/items/bluebook/1960s.zip&file=1960s%2F1965-08-7472234-McKinney-Texas.pdf,-96.6154471,33.1976496,#f90105,medium,triangle-stroked
07/08/1965,"San Pablo, California",flying object,insufficient data,https://ia601301.us.archive.org/zipview.php?zip=/8/items/bluebook/1960s.zip&file=1960s%2F1965-08-7472268-SanPablo-California.pdf,-122.3455263,37.9621457,#f90105,medium,triangle-stroked
07/08/1965,"Ft Carson, Colorado",flying object,aircraft,https://ia801301.us.archive.org/zipview.php?zip=/8/items/bluebook/1960s.zip&file=1960s%2F1965-08-7472357-FtCarson-Colorado.pdf,-104.779474394498,38.7415445,#319f1d,medium,airport
08/08/1965,"Calumet, Michigan",flying object,Astro(star/planet),https://ia801301.us.archive.org/zipview.php?zip=/8/items/bluebook/1960s.zip&file=1960s%2F1965-08-7472424-Calumet-Michigan.pdf,-88.454006,47.246592,#122c87,medium,lighthouse
08/08/1965,"Seneca, Kansas",flying object,insufficient data,https://ia801301.us.archive.org/zipview.php?zip=/8/items/bluebook/1960s.zip&file=1960s%2F1965-08-7472489-Seneca-Kansas.pdf,-96.064168,39.834165,#f90105,medium,triangle-stroked
08/08/1965,"Baltimore, Maryland",flying object,aircraft,https://ia601301.us.archive.org/zipview.php?zip=/8/items/bluebook/1960s.zip&file=1960s%2F1965-08-7472507-Baltimore-Maryland.pdf,-76.610759,39.2908816,#319f1d,medium,airport
08/08/1965,"Palos Verdes, California",flying object,Astro(Mars),https://ia601301.us.archive.org/zipview.php?zip=/8/items/bluebook/1960s.zip&file=1960s%2F1965-08-7472520-PalosVerdes-California.pdf,-118.3707683,33.7483311,#122c87,medium,lighthouse
08/08/1965,"Minot, North Dakota",flying object,satellite,https://ia801301.us.archive.org/zipview.php?zip=/8/items/bluebook/1960s.zip&file=1960s%2F1965-08-7472666-Minot-NorthDakota.pdf,-101.296273,48.23251,#4089ba,medium,circle-stroked
08/08/1965,"Fresno, California",flying object,insufficient data,https://ia801301.us.archive.org/zipview.php?zip=/8/items/bluebook/1960s.zip&file=1960s%2F1965-08-7472683-Fresno-California.pdf,-119.708861260756,36.7295295,#f90105,medium,triangle-stroked
09/08/1965,"Hollywood Hills, California",ball,satellite,https://ia801301.us.archive.org/zipview.php?zip=/8/items/bluebook/1960s.zip&file=1960s%2F1965-08-7472790-HollywoodHills-California.pdf,-118.3355474,34.1311792,#4089ba,medium,circle-stroked
09/08/1965,"Proctor, Minnesota",flying object,Astro(Antares),https://ia601301.us.archive.org/zipview.php?zip=/8/items/bluebook/1960s.zip&file=1960s%2F1965-08-7472734-Proctor-Minnesota.pdf,-92.2254695,46.7471638,#122c87,medium,lighthouse
09/08/1965,"Montrose, Colorado",flying object,satellite,https://ia801301.us.archive.org/zipview.php?zip=/8/items/bluebook/1960s.zip&file=1960s%2F1965-08-7472860-Montrose-Colorado.pdf,-107.8762771,38.4781927,#4089ba,medium,circle-stroked
09/08/1965,"Cedar Rapids, Iowa",light,Astro(meteor),https://ia801301.us.archive.org/zipview.php?zip=/8/items/bluebook/1960s.zip&file=1960s%2F1965-08-7472711-CedarRapids-Iowa.pdf,-91.6704053,41.9758872,#122c87,medium,lighthouse
10/08/1965,"Suffolk County, NY",flying object,aircraft,https://ia601301.us.archive.org/zipview.php?zip=/8/items/bluebook/1960s.zip&file=1960s%2F1965-08-7472974-SuffolkCounty-NY.pdf,-72.8578027,40.8832318,#319f1d,medium,airport
10/08/1965,"Orlando, Florida",flying object,Astro(Venus),https://ia801301.us.archive.org/zipview.php?zip=/8/items/bluebook/1960s.zip&file=1960s%2F1965-08-7473094-Orlando-Florida.pdf,-81.3790388,28.5421097,#122c87,medium,lighthouse
10/08/1965,"Phoenix, Arizona",flying object,Astro(meteor),https://ia601301.us.archive.org/zipview.php?zip=/8/items/bluebook/1960s.zip&file=1960s%2F1965-08-7473170-Phoenix-Arizona.pdf,-112.0773456,33.4485866,#122c87,medium,lighthouse
10/08/1965,"Los Angeles, California",flying object,Astro(Mars),https://ia801301.us.archive.org/zipview.php?zip=/8/items/bluebook/1960s.zip&file=1960s%2F1965-08-7473209-LosAngeles-California.pdf,-118.2427669,34.0536834,#122c87,medium,lighthouse
10/08/1965,"Freemont, California",flying object,aircraft,https://ia601301.us.archive.org/zipview.php?zip=/8/items/bluebook/1960s.zip&file=1960s%2F1965-08-7473235-Freemont-California.pdf,-120.316785,37.2905222,#319f1d,medium,airport
11/08/1965,"Waterford, Connecticut",flying object,imagination,https://ia801301.us.archive.org/zipview.php?zip=/8/items/bluebook/1960s.zip&file=1960s%2F1965-08-7473267-Waterford-Connecticut.pdf,-72.1519367,41.358659,#c713e7,medium,cross
11/08/1965,"Albany, New York",flying object,aircraft,https://ia801301.us.archive.org/zipview.php?zip=/8/items/bluebook/1960s.zip&file=1960s%2F1965-08-7473357-Albany-NewYork.pdf,-73.754968,42.6511674,#319f1d,medium,airport
11/08/1965,"Far Rockaway, New York",flying object,Astro(meteor),https://ia801301.us.archive.org/zipview.php?zip=/8/items/bluebook/1960s.zip&file=1960s%2F1965-08-7473745-FarRockaway-NewYork.pdf,-73.7551326,40.6053825,#122c87,medium,lighthouse
11/08/1965,"Zionsville, Indiana",flying object,aircraft,https://ia801301.us.archive.org/zipview.php?zip=/8/items/bluebook/1960s.zip&file=1960s%2F1965-08-7473800-Zionsville-Indiana.pdf,-86.2616968,39.950724,#319f1d,medium,airport
11/08/1965,"Pueblo, Colorado",flying object,Astro(star/planet),https://ia801301.us.archive.org/zipview.php?zip=/8/items/bluebook/1960s.zip&file=1960s%2F1965-08-7473906-Pueblo-Colorado.pdf,-104.609141,38.2544472,#122c87,medium,lighthouse
11/08/1965,"Prospect Heights, Illinois",flying object,Astro(Capella),https://ia801301.us.archive.org/zipview.php?zip=/8/items/bluebook/1960s.zip&file=1960s%2F1965-08-7474011-ProspectHeights-Illinois.pdf,-87.9375694,42.0953049,#122c87,medium,lighthouse
11/08/1965,"Whiteman AFB, Missouri",flying object,Astro(star/planet),https://ia801301.us.archive.org/zipview.php?zip=/8/items/bluebook/1960s.zip&file=1960s%2F1965-08-7474203-WhitemanAFB-Missouri.pdf,-93.5614331941913,38.7298305,#122c87,medium,lighthouse
11/08/1965,"Richmond, Walnut Creek, California",light,Astro(Reflected Moonlight),https://ia601301.us.archive.org/zipview.php?zip=/8/items/bluebook/1960s.zip&file=1960s%2F1965-08-7473291-Richmond-WalnutCreek-California.pdf,-122.268631726891,37.8816725,#122c87,medium,lighthouse
12/08/1965,"Ramona, California",flying object,insufficient data,https://ia801301.us.archive.org/zipview.php?zip=/8/items/bluebook/1960s.zip&file=1960s%2F1965-08-7474756-Ramona-California.pdf,-116.867513220741,33.035378,#f90105,medium,triangle-stroked
12/08/1965,"Duluth, Minnesota",flying object,satellite,https://ia801301.us.archive.org/zipview.php?zip=/8/items/bluebook/1960s.zip&file=1960s%2F1965-08-7474855-Duluth-Minnesota.pdf,-92.1251218,46.7729322,#4089ba,medium,circle-stroked
12/08/1965,"Amarillo,Texas",flying object,insufficient data,https://ia801301.us.archive.org/zipview.php?zip=/8/items/bluebook/1960s.zip&file=1960s%2F1965-08-7475136-Amarillo-Texas.pdf,-101.8338246,35.2072185,#f90105,medium,triangle-stroked
12/08/1965,"Seattle, Washington",flying object,aircraft,https://ia801301.us.archive.org/zipview.php?zip=/8/items/bluebook/1960s.zip&file=1960s%2F1965-08-7475341-Seattle-Washington.pdf,-122.3300624,47.6038321,#319f1d,medium,airport
12/08/1965,"Pleasant Hill, Missouri",light,Astro(Antares),https://ia801301.us.archive.org/zipview.php?zip=/8/items/bluebook/1960s.zip&file=1960s%2F1965-08-7475417-PleasantHill-Missouri.pdf,-94.2455016,38.7938983,#122c87,medium,lighthouse
12/08/1965,"Toledo, Ohio",light,aircraft,https://ia601301.us.archive.org/zipview.php?zip=/8/items/bluebook/1960s.zip&file=1960s%2F1965-08-7475480-Toledo-Ohio.pdf,-83.5127283,41.6786754,#319f1d,medium,airport
12/08/1965,"Happy, Texas",light ,Astro(meteor),https://ia801301.us.archive.org/zipview.php?zip=/8/items/bluebook/1960s.zip&file=1960s%2F1965-08-7475278-Happy-Texas.pdf,-101.8546322,34.7436704,#122c87,medium,lighthouse
13/08/1965,"Beaver, Pennsylvania",flying object,Astro(star/planet),https://ia601301.us.archive.org/zipview.php?zip=/8/items/bluebook/1960s.zip&file=1960s%2F1965-08-7475534-Beaver-Pennsylvania.pdf,-80.3709999,40.6916624,#122c87,medium,lighthouse
13/08/1965,"Courcelles, Belgium",flying object,satellite,https://ia801301.us.archive.org/zipview.php?zip=/8/items/bluebook/1960s.zip&file=1960s%2F1965-08-7475549-Courcelles-Belgium.pdf,4.3763406,50.4601576,#4089ba,medium,circle-stroked
13/08/1965,"Miamisburg, Ohio",flying object,Astro(star/planet),https://ia801301.us.archive.org/zipview.php?zip=/8/items/bluebook/1960s.zip&file=1960s%2F1965-08-7475564-Miamisburg-Ohio.pdf,-84.2866083,39.6428362,#122c87,medium,lighthouse
13/08/1965,"Baden, Pennsylvania",flying object,hoax,https://ia801301.us.archive.org/zipview.php?zip=/8/items/bluebook/1960s.zip&file=1960s%2F1965-08-7475631-Baden-Pennsylvania.pdf,-80.2281159,40.6350668,#c713e7,medium,cross
14/08/1965,"Newport News, Virginia",flying object,satellite,https://ia801301.us.archive.org/zipview.php?zip=/8/items/bluebook/1960s.zip&file=1960s%2F1965-08-7475992-NewportNews-Virginia.pdf,-76.4321089,36.9786449,#4089ba,medium,circle-stroked
15/08/1965,"Calumet City, Illinois",flying object,aircraft,https://ia601301.us.archive.org/zipview.php?zip=/8/items/bluebook/1960s.zip&file=1960s%2F1965-08-7476027-CalumetCity-Illinois.pdf,-87.5295837,41.616016,#319f1d,medium,airport
15/08/1965,"Portsmouth, Virginia",flying object,unreliable report,https://ia801301.us.archive.org/zipview.php?zip=/8/items/bluebook/1960s.zip&file=1960s%2F1965-08-7476161-Portsmouth-Virginia.pdf,-76.2982742,36.8354258,#c713e7,medium,cross
15/08/1965,"Bryte, California",flying object,Astro(Mars),https://ia601301.us.archive.org/zipview.php?zip=/8/items/bluebook/1960s.zip&file=1960s%2F1965-08-7476278-Bryte-California.pdf,-121.5416232,38.5946272,#122c87,medium,lighthouse
15/08/1965,"Thackery, Ohio",flying object,aircraft,https://ia801301.us.archive.org/zipview.php?zip=/8/items/bluebook/1960s.zip&file=1960s%2F1965-08-7476302-Thackery-Ohio.pdf,-83.9188225,40.0556136,#319f1d,medium,airport
16/08/1965,"Little Rock, Arkansas",flying object,satellite,https://ia801301.us.archive.org/zipview.php?zip=/8/items/bluebook/1960s.zip&file=1960s%2F1965-08-9369205-LittleRockArk.pdf,-92.2895948,34.7464809,#4089ba,medium,circle-stroked
16/08/1965,"Little Rock, Arkansas",flying object,satellite,https://ia801301.us.archive.org/zipview.php?zip=/8/items/bluebook/1960s.zip&file=1960s%2F1965-08-9369212-LittleRock-Arkansas.pdf,-92.2895948,34.7464809,#4089ba,medium,circle-stroked
16/08/1965,"Columbus, Ohio",flying object,aircraft,https://ia601301.us.archive.org/zipview.php?zip=/8/items/bluebook/1960s.zip&file=1960s%2F1965-08-9369249-Columbus-Ohio.pdf,-83.0007065,39.9622601,#319f1d,medium,airport
16/08/1965,"South Wardsboro, Vermont",flying object,aircraft,https://ia801301.us.archive.org/zipview.php?zip=/8/items/bluebook/1960s.zip&file=1960s%2F1965-08-9369286-SouthWardsboro-Vermont.pdf,-72.7834293,43.0114684,#319f1d,medium,airport
16/08/1965,"Cleveland, Ohio",flying object,satellite,https://ia601301.us.archive.org/zipview.php?zip=/8/items/bluebook/1960s.zip&file=1960s%2F1965-08-9369315-Cleveland-Ohio.pdf,-81.6934446,41.5051613,#4089ba,medium,circle-stroked
16/08/1965,"Kingston, New York",flying object,satellite,https://ia801301.us.archive.org/zipview.php?zip=/8/items/bluebook/1960s.zip&file=1960s%2F1965-08-9369379-Kingston-NewYork.pdf,-74.0023702,41.9287812,#4089ba,medium,circle-stroked
16/08/1965,"Trotwood, Ohio",flying object,satellite,https://ia601301.us.archive.org/zipview.php?zip=/8/items/bluebook/1960s.zip&file=1960s%2F1965-08-9369426-Trotwood-Ohio.pdf,-84.3113334,39.7972788,#4089ba,medium,circle-stroked
17/08/1965,"Ottawa, Illinois",flying object,Astro(meteor),https://ia801301.us.archive.org/zipview.php?zip=/8/items/bluebook/1960s.zip&file=1960s%2F1965-08-9369502-Ottawa-Illinois.pdf,-88.845436,41.3516628,#122c87,medium,lighthouse
18/08/1965,"Trenton, Ohio",flying object,Astro(Capella),https://ia801301.us.archive.org/zipview.php?zip=/8/items/bluebook/1960s.zip&file=1960s%2F1965-08-9369522-Trenton-Ohio.pdf,-84.4577222,39.4808905,#122c87,medium,lighthouse
18/08/1965,"Summer, Washington",flying object,ground light,https://ia601301.us.archive.org/zipview.php?zip=/8/items/bluebook/1960s.zip&file=1960s%2F1965-08-9369577-Summer-Washington.pdf,-119.2940776,47.5028089,#c713e7,medium,cross
20/08/1965,"Scranton, Pennsylvania",flying object,aircraft,https://ia801301.us.archive.org/zipview.php?zip=/8/items/bluebook/1960s.zip&file=1960s%2F1965-08-9369851-Scranton-Pennsylvania.pdf,-75.6621294,41.4086874,#319f1d,medium,airport
20/08/1965,"Plattsburg, New York",flying object,aircraft,https://ia601301.us.archive.org/zipview.php?zip=/8/items/bluebook/1960s.zip&file=1960s%2F1965-08-9369883-Plattsburg-NewYork.pdf,-73.45562,44.69282,#319f1d,medium,airport
20/08/1965,"New Milford, Connecticut",flying object,birds,https://ia601301.us.archive.org/zipview.php?zip=/8/items/bluebook/1960s.zip&file=1960s%2F1965-08-9370081-NewMilford-Connecticut.pdf,-73.4117653831255,41.5867418,#f59905,medium,zoo
21/08/1965,"Orting, Washington",flying object,ground light,https://ia801301.us.archive.org/zipview.php?zip=/8/items/bluebook/1960s.zip&file=1960s%2F1965-08-9370062-Orting-Washington.pdf,-122.2042824,47.0978795,#c713e7,medium,cross
21/08/1965,"Island Park, NewYork",light,ground light,https://ia601301.us.archive.org/zipview.php?zip=/8/items/bluebook/1960s.zip&file=1960s%2F1965-08-9370010-IslandPark-NewYork.pdf,139.7630049,35.7251496,#c713e7,medium,cross
22/08/1965,"Lancaster, California",flying object,aircraft,https://ia801301.us.archive.org/zipview.php?zip=/8/items/bluebook/1960s.zip&file=1960s%2F1965-08-9370156-Lancaster-California.pdf,-118.1366153,34.6981064,#319f1d,medium,airport
23/08/1965,"Bogata, Columbia",flying object,Astro(Jupiter),https://ia801301.us.archive.org/zipview.php?zip=/8/items/bluebook/1960s.zip&file=1960s%2F1965-08-9370174-Bogata-Columbia.pdf,-75.9486201,6.001856,#122c87,medium,lighthouse
23/08/1965,"Grand Canyon National Park, Arizona",flying object,aircraft,https://ia801301.us.archive.org/zipview.php?zip=/8/items/bluebook/1960s.zip&file=1960s%2F1965-08-9370182-GrandCanyonNationalPark-Arizona.pdf,-112.292896037024,36.30785475,#319f1d,medium,airport
23/08/1965,"Jamestown, New York",flying object,Astro(Venus),https://ia801301.us.archive.org/zipview.php?zip=/8/items/bluebook/1960s.zip&file=1960s%2F1965-08-9370196-Jamestown-NewYork.pdf,-79.2353259,42.0970023,#122c87,medium,lighthouse
23/08/1965,"Wooddale, Illinois",flying object,aircraft,https://ia801301.us.archive.org/zipview.php?zip=/8/items/bluebook/1960s.zip&file=1960s%2F1965-08-9370204-Wooddale-Illinois.pdf,-89.1575904,42.2743527,#319f1d,medium,airport
23/08/1965,"Pine City, Minnesota",flying object,Astro(Capella),https://ia801301.us.archive.org/zipview.php?zip=/8/items/bluebook/1960s.zip&file=1960s%2F1965-08-9370225-PineCity-Minnesota.pdf,-92.9685423,45.8260672,#122c87,medium,lighthouse
23/08/1965,"Superior, Wisconsin",flying object,Astro(star/planet),https://ia801301.us.archive.org/zipview.php?zip=/8/items/bluebook/1960s.zip&file=1960s%2F1965-08-9370264-Superior-Wisconsin.pdf,-92.1040796,46.7207737,#122c87,medium,lighthouse
24/08/1965,"Shallop Cove, Newfoundland, Canada",flying object,satellite,https://ia801301.us.archive.org/zipview.php?zip=/8/items/bluebook/1960s.zip&file=1960s%2F1965-08-9370313-ShallopCove-Newfoundland-Canada.pdf,-58.536168,48.4168155,#4089ba,medium,circle-stroked
24/08/1965,"Fayetteville, Arkansas",flying object,plastic,https://ia601301.us.archive.org/zipview.php?zip=/8/items/bluebook/1960s.zip&file=1960s%2F1965-08-9370302-Fayetteville-Arkansas.pdf,-94.1574328,36.0625843,#c713e7,medium,cross
25/08/1965,"Burlington, Massachusetts",flying object,Astro(Capella),https://ia601301.us.archive.org/zipview.php?zip=/8/items/bluebook/1960s.zip&file=1960s%2F1965-08-9370397-Burlington-Mass.pdf,-71.1956111,42.5048167,#122c87,medium,lighthouse
25/08/1965,"Oakwood, Ohio",flying object,satellite,https://ia801301.us.archive.org/zipview.php?zip=/8/items/bluebook/1960s.zip&file=1960s%2F1965-08-9370494-Oakwood-Ohio.pdf,-84.1741059,39.7253369,#4089ba,medium,circle-stroked
25/08/1965,"Washington Township, Ohio",flying object,satellite,https://ia801301.us.archive.org/zipview.php?zip=/8/items/bluebook/1960s.zip&file=1960s%2F1965-08-9370439-WashingtonTownship-Ohio.pdf,-83.8907241380753,40.4222891,#4089ba,medium,circle-stroked
26/08/1965,"France",flying object,clouds,https://ia801301.us.archive.org/zipview.php?zip=/8/items/bluebook/1960s.zip&file=1960s%2F1965-08-9370537-%5BILLEGIBLE%5D.pdf,1.8883335,46.603354,#c713e7,medium,cross
26/08/1965,"Houston, Texas",flying object,Astro(Jupiter),https://ia601301.us.archive.org/zipview.php?zip=/8/items/bluebook/1960s.zip&file=1960s%2F1965-08-9370728-SSWofHouston-Texas-Rosenburg-Freeport-Neeville-Angleton-.pdf,-95.3676974,29.7589382,#122c87,medium,lighthouse
26/08/1965,"Alexandria, LA",flying object,Astro(Acturus),https://ia801301.us.archive.org/zipview.php?zip=/8/items/bluebook/1960s.zip&file=1960s%2F1965-08-9370777-Alexandria-La.pdf,29.894378,31.199004,#122c87,medium,lighthouse
26/08/1965,"Missile Site, Nebraska",flying object,aircraft,https://ia801301.us.archive.org/zipview.php?zip=/8/items/bluebook/1960s.zip&file=1960s%2F1965-08-9370907-MissileSiteInNebraska.pdf,-96.2991356,41.4882875,#319f1d,medium,airport
26/08/1965,"Sioux Army Depot, Nebraska",flying object,aircraft,https://ia601301.us.archive.org/zipview.php?zip=/8/items/bluebook/1960s.zip&file=1960s%2F1965-08-9370929-SiouxArmyDepot-Nebraska.pdf,-103.009695049862,41.2391586,#319f1d,medium,airport
26/08/1965,"Nebraska",flying object,aircraft,https://ia601301.us.archive.org/zipview.php?zip=/8/items/bluebook/1960s.zip&file=1960s%2F1965-08-9370948-NebraskaArea.pdf,-99.5873816,41.7370229,#319f1d,medium,airport
26/08/1965,"Erie, Pennsylvania",light,Astro(meteor shower),https://ia801301.us.archive.org/zipview.php?zip=/8/items/bluebook/1960s.zip&file=1960s%2F1965-08-9370883-Erie-Pennsylvania.pdf,-80.0852695,42.1294712,#122c87,medium,lighthouse
27/08/1965,"Tacoma, Washington",flying object,aircraft,https://ia601301.us.archive.org/zipview.php?zip=/8/items/bluebook/1960s.zip&file=1960s%2F1965-08-9370973-Tacoma-Washington.pdf,-122.4205999,47.2420068,#319f1d,medium,airport
27/08/1965,"Corpus Christi, Texas",flying object,satellite,https://ia801301.us.archive.org/zipview.php?zip=/8/items/bluebook/1960s.zip&file=1960s%2F1965-08-9370985-CorpusChristi-Texas.pdf,-97.3955744,27.8002542,#4089ba,medium,circle-stroked
27/08/1965,"Hilo, Hawaii",light,insufficient data,https://ia801301.us.archive.org/zipview.php?zip=/8/items/bluebook/1960s.zip&file=1960s%2F1965-08-9371002-Hilo-Hawaii.pdf,-155.448698303485,19.58955475,#f90105,medium,triangle-stroked
29/08/1965,"Tipp City, Ohio",flying object,satellite,https://ia801301.us.archive.org/zipview.php?zip=/8/items/bluebook/1960s.zip&file=1960s%2F1965-08-9371054-TippCity-Ohio.pdf,-84.1721638,39.9583892,#4089ba,medium,circle-stroked
29/08/1965,"Northeast Harbor, Maine.",light,Astro(Acturus),https://ia601301.us.archive.org/zipview.php?zip=/8/items/bluebook/1960s.zip&file=1960s%2F1965-08-9371082-NortheastHarbor-Maine.pdf,-68.2897381,44.2942468,#122c87,medium,lighthouse
29/08/1965,"Springfield, Maryland",light,insufficient data,https://ia601301.us.archive.org/zipview.php?zip=/8/items/bluebook/1960s.zip&file=1960s%2F1965-08-9371174-Springfield-Maryland.pdf,-76.7994148,38.9928881,#f90105,medium,triangle-stroked
31/08/1965,"Lake Melissa, Minnesota",flying object,satellite,https://ia801301.us.archive.org/zipview.php?zip=/8/items/bluebook/1960s.zip&file=1960s%2F1965-08-9371286-LakeMelissa-Minnesota.pdf,-95.8975613988253,46.7432837,#4089ba,medium,circle-stroked
31/08/1965,"Turner, Montana",flying object,Astro(Vega),https://ia801301.us.archive.org/zipview.php?zip=/8/items/bluebook/1960s.zip&file=1960s%2F1965-08-9371301-Turner-Montana.pdf,-108.4048141,48.8456288,#122c87,medium,lighthouse
31/08/1965,"Cheyenne, Wyoming",light,insufficient data,https://ia801301.us.archive.org/zipview.php?zip=/8/items/bluebook/1960s.zip&file=1960s%2F1965-08-9371404-Cheyenne-Wyoming.pdf,-104.820246,41.139981,#f90105,medium,triangle-stroked
01/09/1965,"Pittsburgh, Pennsylvania",flying object,insufficient data,https://ia801301.us.archive.org/zipview.php?zip=/8/items/bluebook/1960s.zip&file=1960s%2F1965-09-9372600-Pittsburgh-Pennsylvania.pdf,-79.9900861,40.4416941,#f90105,medium,triangle-stroked
01/09/1965,"Chicago, Illinois",flying object,satellite,https://ia801301.us.archive.org/zipview.php?zip=/8/items/bluebook/1960s.zip&file=1960s%2F1965-09-9372642-Chicago-Illinois.pdf,-87.6244212,41.8755616,#4089ba,medium,circle-stroked
01/09/1965,"Yellow Springs, Ohio",flying object,satellite,https://ia601301.us.archive.org/zipview.php?zip=/8/items/bluebook/1960s.zip&file=1960s%2F1965-09-9372766-YellowSprings-Ohio.pdf,-83.8925234,39.8045432,#4089ba,medium,circle-stroked
01/09/1965,"Michigan",flying object,aircraft,https://ia801301.us.archive.org/zipview.php?zip=/8/items/bluebook/1960s.zip&file=1960s%2F1965-09-9372805-Michigan.pdf,-84.6824346,43.6211955,#319f1d,medium,airport
01/09/1965,"Bakersfield, California",light,aircraft,https://ia801301.us.archive.org/zipview.php?zip=/8/items/bluebook/1960s.zip&file=1960s%2F1965-09-9372829-Bakersfield-California.pdf,-119.0194639,35.3738712,#319f1d,medium,airport
02/09/1965,Nebraska Missile Site,flying object,Astro(Jupiter),https://ia801301.us.archive.org/zipview.php?zip=/8/items/bluebook/1960s.zip&file=1960s%2F1965-09-9372862-NebraskaMissileSite.pdf,-96.2991356,41.4882875,#122c87,medium,lighthouse
02/09/1965,"Laredo,Texas",flying object,aircraft,https://ia601301.us.archive.org/zipview.php?zip=/8/items/bluebook/1960s.zip&file=1960s%2F1965-09-9372957-Laredo-Texas.pdf,-99.4953764,27.5199841,#319f1d,medium,airport
02/09/1965,"Dayton, Ohio",flying object,satellite,https://ia801301.us.archive.org/zipview.php?zip=/8/items/bluebook/1960s.zip&file=1960s%2F1965-09-9373193-Dayton-Ohio.pdf,-84.1916069,39.7589478,#4089ba,medium,circle-stroked
02/09/1965,"Biloxi, Mississippi",flying object,satellite,https://ia801301.us.archive.org/zipview.php?zip=/8/items/bluebook/1960s.zip&file=1960s%2F1965-09-9373239-Biloxi-Mississippi.pdf,-88.8459433348286,30.374673,#4089ba,medium,circle-stroked
03/09/1965,"Damon, Texas",flying object,unidentified,https://ia801301.us.archive.org/zipview.php?zip=/8/items/bluebook/1960s.zip&file=1960s%2F1965-09-9372331-Damon-Texas.pdf,-95.7346708,29.290523,#c713e7,medium,cross
03/09/1965,"Exeter, New Hampshire",flying object,satellite,https://ia801301.us.archive.org/zipview.php?zip=/8/items/bluebook/1960s.zip&file=1960s%2F1965-09-9373271-Exeter-NewHampshire.pdf,-70.9478343,42.981477,#4089ba,medium,circle-stroked
03/09/1965,"Portland, Indiana",flying object,Astro(star/planet) ,https://ia801301.us.archive.org/zipview.php?zip=/8/items/bluebook/1960s.zip&file=1960s%2F1965-09-9373897-Portland-Indiana.pdf,-84.9777455,40.4344895,#122c87,medium,lighthouse
03/09/1965,"Columbus, Ohio",flying object,insufficient data,https://ia801301.us.archive.org/zipview.php?zip=/8/items/bluebook/1960s.zip&file=1960s%2F1965-09-9373977-Columbus-Ohio.pdf,-83.0007065,39.9622601,#f90105,medium,triangle-stroked
03/09/1965,"Waynesville, Ohio",flying object,Astro(meteor),https://ia801301.us.archive.org/zipview.php?zip=/8/items/bluebook/1960s.zip&file=1960s%2F1965-09-9373987-Waynesville-Ohio.pdf,-84.086601,39.5297824,#122c87,medium,lighthouse
03/09/1965,"Moraine, Ohio",light,Astro(Jupiter),https://ia601301.us.archive.org/zipview.php?zip=/8/items/bluebook/1960s.zip&file=1960s%2F1965-09-9373940-Moraine-Ohio.pdf,-84.2193849,39.7061702,#122c87,medium,lighthouse
04/09/1965,"Ketchikan, Alaska",ball,Astro(meteor),https://ia601301.us.archive.org/zipview.php?zip=/8/items/bluebook/1960s.zip&file=1960s%2F1965-09-8663430-Ketchikan-Alaska-HerringCove-.pdf,-131.6466819,55.3430696,#122c87,medium,lighthouse
04/09/1965,"Tampa, Florida",flying object,satellite,https://ia801301.us.archive.org/zipview.php?zip=/8/items/bluebook/1960s.zip&file=1960s%2F1965-09-9374032-Tampa-Florida.pdf,-82.458444,27.9477595,#4089ba,medium,circle-stroked
04/09/1965,"Ozone Park, New York",flying object,satellite,https://ia801301.us.archive.org/zipview.php?zip=/8/items/bluebook/1960s.zip&file=1960s%2F1965-09-9374044-OzonePark-NewYork.pdf,-73.8437461,40.67677,#4089ba,medium,circle-stroked
04/09/1965,"Cleveland, Ohio",flying object,aircraft,https://ia601301.us.archive.org/zipview.php?zip=/8/items/bluebook/1960s.zip&file=1960s%2F1965-09-9374074-Cleveland-Ohio.pdf,-81.6934446,41.5051613,#319f1d,medium,airport
04/09/1965,"Conway, N H",flying object,satellite,https://ia801301.us.archive.org/zipview.php?zip=/8/items/bluebook/1960s.zip&file=1960s%2F1965-09-9374169-Conway-N-H.pdf,-71.120682,43.979475,#4089ba,medium,circle-stroked
05/09/1965,"Duluth, Minnesota",ball,Astro(meteor),https://ia801301.us.archive.org/zipview.php?zip=/8/items/bluebook/1960s.zip&file=1960s%2F1965-09-8669443-Duluth-Minnesota.pdf,-92.1251218,46.7729322,#122c87,medium,lighthouse
05/09/1965,"Cheyenne, Wyoming",flying object,insufesient data for evaluation,https://ia601301.us.archive.org/zipview.php?zip=/8/items/bluebook/1960s.zip&file=1960s%2F1965-09-8669984-Cheyenne-Wyoming.pdf,-104.820246,41.139981,#c713e7,medium,cross
05/09/1965,"Tacoma, Washington",flying object,satellite,https://ia801301.us.archive.org/zipview.php?zip=/8/items/bluebook/1960s.zip&file=1960s%2F1965-09-8670180-Tacoma-Washington.pdf,-122.4205999,47.2420068,#4089ba,medium,circle-stroked
05/09/1965,"Corpus Christi, Texas",light,Astro(Venus),https://ia801301.us.archive.org/zipview.php?zip=/8/items/bluebook/1960s.zip&file=1960s%2F1965-09-8664141-CorpusChristi-Texas.pdf,-97.3955744,27.8002542,#122c87,medium,lighthouse
06/09/1965,"Leon, New York",flying object,aircraft,https://ia801301.us.archive.org/zipview.php?zip=/8/items/bluebook/1960s.zip&file=1960s%2F1965-09-8671793-Leon-NewYork.pdf,-79.016428,42.293116,#319f1d,medium,airport
06/09/1965,"Long Beach, New York",flying object,satellite,https://ia801301.us.archive.org/zipview.php?zip=/8/items/bluebook/1960s.zip&file=1960s%2F1965-09-8671902-LongBeach-NewYork.pdf,-73.657861,40.5885116,#4089ba,medium,circle-stroked
06/09/1965,"Indianapolis, Indiana",flying object,satellite,https://ia801301.us.archive.org/zipview.php?zip=/8/items/bluebook/1960s.zip&file=1960s%2F1965-09-8673399-Indianapolis-Indiana.pdf,-86.1583502,39.7683331,#4089ba,medium,circle-stroked
06/09/1965,"Colorado Springs, Colorado",flying object,satellite,https://ia801301.us.archive.org/zipview.php?zip=/8/items/bluebook/1960s.zip&file=1960s%2F1965-09-8673712-ColoradoSprings-Colorado.pdf,-104.8253485,38.8339578,#4089ba,medium,circle-stroked
06/09/1965,"Alice, Texas",flying object,satellite,https://ia801301.us.archive.org/zipview.php?zip=/8/items/bluebook/1960s.zip&file=1960s%2F1965-09-8673865-Alice-Texas.pdf,-98.0697249,27.7522487,#4089ba,medium,circle-stroked
07/09/1965,"Alexandria, Louisiana",flying object,satellite,https://ia801301.us.archive.org/zipview.php?zip=/8/items/bluebook/1960s.zip&file=1960s%2F1965-09-8674266-Alexandria-Louisiana.pdf,-92.4449087,31.311248,#4089ba,medium,circle-stroked
07/09/1965,"Menlo Park, California",flying object,Astro(meteor),https://ia601301.us.archive.org/zipview.php?zip=/8/items/bluebook/1960s.zip&file=1960s%2F1965-09-8674804-MenloPark-California.pdf,-122.1821871,37.4538274,#122c87,medium,lighthouse
07/09/1965,"Tempe, Arizona",flying object,aircraft,https://ia801301.us.archive.org/zipview.php?zip=/8/items/bluebook/1960s.zip&file=1960s%2F1965-09-8674931-Tempe-Arizona.pdf,-111.9094474,33.4144139,#319f1d,medium,airport
08/09/1965,"Tonawanda, New York",flying object,Astro(meteor),https://ia801301.us.archive.org/zipview.php?zip=/8/items/bluebook/1960s.zip&file=1960s%2F1965-09-8674421-Tonawanda-NewYork.pdf,-78.878383,43.020679,#122c87,medium,lighthouse
09/09/1965,"Los Angeles, California",ball,Astro(meteor),https://ia601301.us.archive.org/zipview.php?zip=/8/items/bluebook/1960s.zip&file=1960s%2F1965-09-8675293-LosAngeles-California.pdf,-118.2427669,34.0536834,#122c87,medium,lighthouse
09/09/1965,"Walpole, Massachusetts",flying object,Astro(meteor),https://ia801301.us.archive.org/zipview.php?zip=/8/items/bluebook/1960s.zip&file=1960s%2F1965-09-8675219-Walpole-Massachusetts.pdf,-71.2494985,42.1417653,#122c87,medium,lighthouse
11/09/1965,"Sauk Centre, Minnesota",flying object,aircraft,https://ia801301.us.archive.org/zipview.php?zip=/8/items/bluebook/1960s.zip&file=1960s%2F1965-09-8676415-SaukCentre-Minnesota.pdf,-94.9525216,45.737465,#319f1d,medium,airport
12/09/1965,"Odessa, Texas",flying object,Astro(meteor),https://ia801301.us.archive.org/zipview.php?zip=/8/items/bluebook/1960s.zip&file=1960s%2F1965-09-8676865-Odessa-Texas.pdf,-102.367687,31.8457149,#122c87,medium,lighthouse
14/09/1965,"Lyons, Kansas",flying object,insufficient data,https://ia801301.us.archive.org/zipview.php?zip=/8/items/bluebook/1960s.zip&file=1960s%2F1965-09-8677117-Lyons-Kansas.pdf,-98.2017268,38.3450104,#f90105,medium,triangle-stroked
15/09/1965,"Renton, Washington",flying object,insufficient data,https://ia801301.us.archive.org/zipview.php?zip=/8/items/bluebook/1960s.zip&file=1960s%2F1965-09-8677345-Renton-Washington.pdf,-122.2034496,47.4799078,#f90105,medium,triangle-stroked
16/09/1965,"Rolla, Missouri",flying object,Astro(star/planet) ,https://ia601301.us.archive.org/zipview.php?zip=/8/items/bluebook/1960s.zip&file=1960s%2F1965-09-8677486-Rolla-Missouri.pdf,-91.771792,37.9513575,#122c87,medium,lighthouse
16/09/1965,"Baltimore, Maryland",flying object,aircraft,https://ia801301.us.archive.org/zipview.php?zip=/8/items/bluebook/1960s.zip&file=1960s%2F1965-09-8677590-Baltimore-Maryland.pdf,-76.610759,39.2908816,#319f1d,medium,airport
17/09/1965,"Kettering, Ohio",flying object,satellite,https://ia801301.us.archive.org/zipview.php?zip=/8/items/bluebook/1960s.zip&file=1960s%2F1965-09-8677985-Kettering-Ohio.pdf,-84.1688274,39.6895036,#4089ba,medium,circle-stroked
18/09/1965,"Vashon, Washington",flying object,insufficient data,https://ia801301.us.archive.org/zipview.php?zip=/8/items/bluebook/1960s.zip&file=1960s%2F1965-09-8678496-Vashon-Washington.pdf,-122.473705254669,47.42087595,#f90105,medium,triangle-stroked
19/09/1965,"Yokohama, Japan",ball,aircraft,https://ia801301.us.archive.org/zipview.php?zip=/8/items/bluebook/1960s.zip&file=1960s%2F1965-09-8678588-Yokohama-Japan.pdf,139.636768,35.444991,#319f1d,medium,airport
20/09/1965,"Winston Salem, North Carolina",flying object,Inconsistancies in report,https://ia801301.us.archive.org/zipview.php?zip=/8/items/bluebook/1960s.zip&file=1960s%2F1965-09-8678813-WinstonSalem-NorthCarolina.pdf,-80.2440518,36.0998131,#c713e7,medium,cross
20/09/1965,"Dayton, Ohio Area",flying object,satellite,https://ia601301.us.archive.org/zipview.php?zip=/8/items/bluebook/1960s.zip&file=1960s%2F1965-09-8679178-Dayton-OhioArea.pdf,-84.1916069,39.7589478,#4089ba,medium,circle-stroked
20/09/1965,"St Petersburg, Florida",flying object,aircraft,https://ia801301.us.archive.org/zipview.php?zip=/8/items/bluebook/1960s.zip&file=1960s%2F1965-09-8679680-St-Petersburg-Florida.pdf,-82.6695085,27.7703796,#319f1d,medium,airport
21/09/1965,"Brownfield, Texas",flying object,satellite,https://ia601301.us.archive.org/zipview.php?zip=/8/items/bluebook/1960s.zip&file=1960s%2F1965-09-8679819-Brownfield-Texas.pdf,-102.2743489,33.1812035,#4089ba,medium,circle-stroked
22/09/1965,"Clover, Minnesota",flying object,balloon,https://ia601301.us.archive.org/zipview.php?zip=/8/items/bluebook/1960s.zip&file=1960s%2F1965-09-8680004-Clover-Minnesota.pdf,-94.8484743,47.7691846,#c713e7,medium,cross
22/09/1965,"Landis, North Carolina",flying object,aircraft,https://ia801301.us.archive.org/zipview.php?zip=/8/items/bluebook/1960s.zip&file=1960s%2F1965-09-8680117-Landis-NorthCarolina.pdf,-80.6108998,35.5456947,#319f1d,medium,airport
22/09/1965,"Dunkirk, New York",flying object,Astro(star/planet) ,https://ia601301.us.archive.org/zipview.php?zip=/8/items/bluebook/1960s.zip&file=1960s%2F1965-09-8680738-Dunkirk-NewYork.pdf,-79.333932,42.479502,#122c87,medium,lighthouse
22/09/1965,"Silver Springs, Maryland",flying object,aircraft,https://ia801301.us.archive.org/zipview.php?zip=/8/items/bluebook/1960s.zip&file=1960s%2F1965-09-8680801-SilverSprings-Maryland.pdf,-76.910115,38.821017,#319f1d,medium,airport
22/09/1965,"Rio Vista, California",light,Astro(Venus),https://ia601301.us.archive.org/zipview.php?zip=/8/items/bluebook/1960s.zip&file=1960s%2F1965-09-8680465-RioVista-California.pdf,-121.6913439,38.1557502,#122c87,medium,lighthouse
23/09/1965,"New Orleans, Louisiana",flying object,Astro(star/planet) ,https://ia801301.us.archive.org/zipview.php?zip=/8/items/bluebook/1960s.zip&file=1960s%2F1965-09-8681283-NewOrleans-Louisiana.pdf,-90.0701156,29.9499323,#122c87,medium,lighthouse
